     2.11           OBSERVATION DATA    GPS(GPS)            RINEX VERSION / TYPE
cnvtToRINEX 3.14.0  convertToRINEX OPR  20220810 190611 UTC PGM / RUN BY / DATE 
----------------------------------------------------------- COMMENT             
SC-HV-72                                                    MARKER NAME         
SC-HV-72                                                    MARKER NUMBER       
GNSS Observer       Trimble                                 OBSERVER / AGENCY   
4906165579          TRIMBLE 5700II      4.02                REC # / TYPE / VERS 
60266723            TRM39105.00                             ANT # / TYPE        
  3631357.7729 -4247666.7806 -3063991.7431                  APPROX POSITION XYZ 
        1.5000        0.0000        0.0000                  ANTENNA: DELTA H/E/N
     1     1     0                                          WAVELENGTH FACT L1/2
     4    C1    L1    L2    P2                              # / TYPES OF OBSERV 
  2022     7     3    15    42   25.0000000     GPS         TIME OF FIRST OBS   
  2022     7     3    16    30   40.0000000     GPS         TIME OF LAST OBS    
     0                                                      RCV CLOCK OFFS APPL 
    18                                                      LEAP SECONDS        
     9                                                      # OF SATELLITES     
   G05   576   576   576   576                              PRN / # OF OBS      
   G07   580   580   580   580                              PRN / # OF OBS      
   G08   559   555   555   559                              PRN / # OF OBS      
   G09   580   580   580   580                              PRN / # OF OBS      
   G13   450   450   450   450                              PRN / # OF OBS      
   G14   580   580   580   580                              PRN / # OF OBS      
   G17   309   309   309   309                              PRN / # OF OBS      
   G20   580   580   580   580                              PRN / # OF OBS      
   G30   580   580   580   580                              PRN / # OF OBS      
CARRIER PHASE MEASUREMENTS: PHASE SHIFTS REMOVED            COMMENT             
                                                            END OF HEADER       
 22  7  3 15 42 25.0000000  0  6G07G08G09G14G20G30                  
  21256937.164 6 111705954.65516  87043635.92059  21256945.31649
  23797808.625 3 125058168.56413  97448093.98457  23797820.76647
  22322070.398 5 117303268.95515  91405173.63459  22322082.00849
  20663782.109 6 108588903.56316  84614757.55258  20663790.57048
  22221718.805 6 116775919.60916  90994257.65157  22221727.68847
  21006996.008 6 110392460.77116  86020139.02058  21007006.54748
 22  7  3 15 42 30.0000000  0  6G07G08G09G14G20G30                  
  21259447.586 6 111719151.454 6  87053919.13549  21259456.26249
  23799070.359 2 125064804.413 2  97453264.78247  23799084.03547
  22325142.711 5 117319411.905 5  91417752.55849  22325153.57449
  20663238.188 6 108586043.619 6  84612529.02448  20663246.87548
  22223147.422 6 116783427.557 6  91000107.99247  22223156.66847
  21008048.805 6 110397993.135 6  86024449.95348  21008059.30148
 22  7  3 15 42 35.0000000  0  6G07G08G09G14G20G30                  
  21261960.891 6 111732357.788 6  87064209.77649  21261968.90249
  23800337.484 2 125071460.309 2  97458451.18047  23800350.93847
  22328217.070 5 117335570.364 5  91430343.55848  22328228.61748
  20662697.453 6 108583203.904 6  84610316.26248  20662706.57048
  22224579.672 6 116790955.676 6  91005974.07047  22224589.23847
  21009103.109 6 110403536.452 6  86028769.42548  21009113.85948
 22  7  3 15 42 40.0000000  0  6G07G08G09G14G20G30                  
  21264476.430 6 111745575.434 6  87074509.23949  21264484.52749
  23801609.031 3 125078138.093 3  97463654.64247  23801621.43447
  22331295.813 5 117351746.079 5  91442947.99948  22331306.80148
  20662161.750 6 108580386.183 6  84608120.64348  20662170.59048
  22226016.336 6 116798505.770 6  91011857.25447  22226026.10947
  21010160.883 6 110409092.532 6  86033098.84348  21010171.60948
 22  7  3 15 42 45.0000000  0  7G05G07G08G09G14G20G30               
  23634619.422 5 124200792.52915  96779850.65657  23634629.81347
  21266993.836 6 111758805.354 6  87084818.25349  21267001.89549
  23802883.563 1 125084838.612 1  97468875.80947  23802897.00047
  22334377.430 5 117367940.070 5  91455566.68648  22334388.22348
  20661629.148 6 108577591.446 6  84605942.92048  20661638.87948
  22227458.070 6 116806078.801 6  91017758.32147  22227466.96147
  21011220.586 6 110414662.351 6  86037438.95348  21011231.10948
 22  7  3 15 42 50.0000000  0  7G05G07G08G09G14G20G30               
  23633849.156 5 124196739.696 5  96776692.62047  23633858.55147
  21269513.672 6 111772047.646 6  87095136.92449  21269522.13749
  23804163.016 1 125091561.834 1  97474114.67646  23804176.51246
  22337462.383 5 117384152.344 5  91468199.61048  22337473.20348
  20661102.281 6 108574819.807 6  84603783.21348  20661111.48048
  22228902.594 6 116813674.899 6  91023677.35447  22228912.49647
  21012283.063 6 110420245.976 6  86041789.83748  21012293.52748
 22  7  3 15 42 55.0000000  0  7G05G07G08G09G14G20G30               
  23633081.805 5 124192709.390 5  96773552.11146  23633091.62146
  21272036.703 6 111785302.908 6  87105465.68949  21272044.24649
  23805445.117 1 125098308.664 1  97479371.93147  23805460.10247
  22340550.453 5 117400383.491 5  91480847.26648  22340561.61748
  20660579.563 6 108572071.741 6  84601641.86448  20660588.58648
  22230352.891 6 116821294.494 6  91029614.69547  22230361.86747
  21013347.977 6 110425843.920 6  86046151.86648  21013359.10948
 22  7  3 15 43  0.0000000  0  7G05G07G08G09G14G20G30               
  23632319.813 4 124188701.644 4  96770429.18046  23632329.13746
  21274560.875 6 111798570.999 6  87115804.45349  21274569.17249
  23806734.938 1 125105078.664 1  97484647.24247  23806748.87147
  22343643.625 5 117416633.450 5  91493509.56048  22343654.12148
  20660060.836 6 108569347.271 6  84599518.90348  20660069.81348
  22231807.984 6 116828937.648 6  91035570.38247  22231816.43447
  21014416.125 6 110431456.177 6  86050525.05748  21014427.31648
 22  7  3 15 43  5.0000000  0  7G05G07G08G09G14G20G30               
  23631560.852 5 124184715.962 5  96767323.48746  23631570.75846
  21277087.766 6 111811851.295 6  87126152.73249  21277096.02049
  23808027.602 1 125111871.738 1  97489940.51347  23808041.97747
  22346738.758 5 117432901.669 5  91506186.09048  22346749.86748
  20659546.609 6 108566645.839 6  84597413.89248  20659555.85948
  22233266.477 6 116836603.761 6  91041543.97647  22233274.93447
  21015486.703 6 110437082.135 6  86054908.92348  21015498.16848
 22  7  3 15 43 10.0000000  0  7G05G07G08G09G14G20G30               
  23630806.563 4 124180752.502 4  96764235.04746  23630816.21146
  21279618.383 6 111825143.981 6  87136510.66849  21279625.80549
  23809324.055 1 125118687.529 1  97495251.55746  23809338.70746
  22349837.789 5 117449188.239 5  91518876.92848  22349849.19948
  20659036.992 6 108563967.525 6  84595326.90248  20659046.31348
  22234729.297 5 116844292.938 5  91047535.55147  22234738.25047
  21016560.461 6 110442721.975 6  86059303.60248  21016571.09048
 22  7  3 15 43 15.0000000  0  7G05G07G08G09G14G20G30               
  23630056.422 5 124176810.809 5  96761163.60946  23630065.99646
  21282149.414 6 111838448.485 6  87146877.81249  21282157.66449
  23810625.508 1 125125525.729 1  97500580.04847  23810639.33247
  22352940.891 5 117465492.670 5  91531581.66948  22352951.77048
  20658531.648 6 108561311.810 6  84593257.51948  20658540.84848
  22236197.172 5 116852004.622 5  91053544.65247  22236205.78147
  21017636.516 6 110448375.112 6  86063708.64348  21017646.98448
 22  7  3 15 43 20.0000000  0  7G05G07G08G09G14G20G30               
  23629311.055 4 124172890.801 4  96758109.07346  23629319.99246
  21284683.492 6 111851764.819 6  87157254.17349  21284691.85249
  23811929.586 1                                  23811944.93846
  22356046.633 5 117481814.948 5  91544300.30748  22356057.79348
  20658030.688 6 108558678.758 6  84591205.79348  20658039.96948
  22237669.234 6 116859738.850 6  91059571.33147  22237677.30547
  21018714.117 6 110454041.595 6  86068124.07848  21018725.36348
 22  7  3 15 43 25.0000000  0  7G05G07G08G09G14G20G30               
  23628569.203 5 124168992.272 5  96755071.24446  23628577.92646
  21287220.039 6 111865092.836 6  87167639.62949  21287227.74649
  23813240.289 1 125139269.20911  97511289.23357  23813254.97747
  22359156.531 5 117498154.800 5  91557032.64648  22359166.75848
  20657533.594 6 108556068.059 6  84589171.49448  20657542.79748
  22239145.359 5 116867495.321 5  91065615.32247  22239153.65647
  21019794.984 6 110459721.116 6  86072549.67648  21019805.97348
 22  7  3 15 43 30.0000000  0  7G05G07G08G09G14G20G30               
  23627830.945 5 124165114.900 5  96752049.93146  23627840.45346
  21289758.477 6 111878432.090 6  87178033.85049  21289766.53549
  23814554.547 1 125146173.886 1  97516669.48947  23814568.62947
  22362268.250 5 117514511.934 5  91569778.45948  22362279.69948
  20657040.594 6 108553479.428 6  84587154.38448  20657050.14848
  22240624.961 6 116875273.620 6  91071676.32947  22240633.53947
  21020878.063 6 110465413.378 6  86076985.21348  21020889.37548
 22  7  3 15 43 35.0000000  0  7G05G07G08G09G14G20G30               
  23627097.805 4 124161258.374 4  96749044.81746  23627106.14546
  21292299.070 6 111891782.287 6  87188436.59249  21292306.45349
  23815873.242 1 125153100.031 1  97522066.49547  23815886.53947
  22365384.094 5 117530885.950 5  91582537.43048  22365395.60548
  20656552.477 6 108550912.530 6  84585154.20948  20656561.82048
  22242109.016 6 116883073.584 6  91077754.22647  22242117.93447
  21021963.664 6 110471118.038 6  86081430.39948  21021975.02048
 22  7  3 15 43 40.0000000  0  7G05G07G08G09G14G20G30               
  23626367.602 5 124157421.861 5  96746055.33246  23626376.23846
  21294841.406 6 111905142.662 6  87198847.27149  21294849.12149
  23817195.047 1 125160046.997 1  97527479.68747  23817208.75047
  22368502.906 5 117547276.136 5  91595308.99448  22368514.40248
  20656068.148 6 108548366.606 6  84583170.37348  20656077.12548
  22243597.813 6 116890894.425 6  91083848.39247  22243606.08247
  21023051.031 6 110476834.365 6  86085884.68248  21023062.86348
 22  7  3 15 43 45.0000000  0  7G05G07G08G09G14G20G30               
  23625640.859 5 124153605.632 5  96743081.65746  23625650.04746
  21297385.484 6 111918513.477 6  87209266.08549  21297393.28949
  23818519.719 1 125167014.982 1  97532909.27347  23818534.75447
  22371625.570 5 117563682.771 5  91608093.37948  22371637.02748
  20655587.625 6 108545841.917 6  84581203.08548  20655596.97748
  22245090.023 5 116898736.310 5  91089958.93847  22245098.42647
  21024140.969 6 110482562.546 6  86090348.20348  21024152.53948
 22  7  3 15 43 50.0000000  0  7G05G07G08G09G14G20G30               
  23624918.688 4 124149809.411 4  96740123.56846  23624927.58646
  21299931.961 6 111931894.341 6  87219692.72949  21299939.58649
  23819850.766 1 125174003.500 1  97538354.84247  23819864.56347
  22374751.109 5 117580105.464 5  91620890.27248  22374761.70748
  20655111.367 6 108543338.141 6  84579252.09148  20655120.35548
  22246586.227 6 116906598.935 6  91096085.66247  22246594.75847
  21025233.969 6 110488302.306 6  86094820.73248  21025244.64148
 22  7  3 15 43 55.0000000  0  7G05G07G08G09G14G20G30               
  23624200.523 3 124146033.226 3  96737181.09346  23624208.82846
  21302480.234 6 111945285.368 6  87230127.28749  21302487.69549
  23821184.875 2 125181012.787 2  97543816.61147  23821198.01647
  22377878.938 5 117596544.264 5  91633699.71548  22377890.39848
  20654639.336 6 108540855.293 6  84577317.40648  20654648.28948
  22248086.609 5 116914482.358 5  91102228.58947  22248094.73847
  21026328.594 6 110494053.636 6  86099302.30048  21026339.05148
 22  7  3 15 44  0.0000000  0  7G05G07G08G09G14G20G30               
  23623485.406 4 124142276.516 4  96734253.80946  23623494.31646
  21305030.367 6 111958685.984 6  87240569.31749  21305038.00449
  23822522.898 2 125188042.131 2  97549294.03147  23822535.96547
  22381009.531 5 117612998.617 5  91646521.28348  22381021.23448
  20654170.781 6 108538392.830 6  84575398.60648  20654179.68848
  22249590.133 5 116922385.999 5  91108387.25947  22249599.20747
  21027425.258 6 110499816.015 6  86103792.45748  21027435.70348
 22  7  3 15 44  5.0000000  0  7G05G07G08G09G14G20G30               
  23622774.281 3 124138539.191 3  96731341.58246  23622783.05946
  21307581.625 6 111972096.033 6  87251018.69349  21307590.03549
  23823865.836 2 125195091.532 2  97554787.07147  23823877.07447
  22384143.180 5 117629468.383 5  91659354.85648  22384155.84448
  20653705.695 6 108535950.648 6  84573495.61748  20653714.65248
  22251098.102 6 116930309.717 6  91114561.60147  22251106.35247
  21028523.219 6 110505589.302 6  86108291.12448  21028533.77348
 22  7  3 15 44 10.0000000  0  7G05G07G08G09G14G20G30               
  23622067.773 3 124134820.759 3  96728444.13846  23622075.84046
  21310135.586 6 111985515.098 6  87261475.09749  21310143.67249
  23825208.969 3 125202160.613 3  97560295.47847  23825222.03547
  22387280.320 5 117645953.171 5  91672200.13148  22387292.59848
  20653244.844 6 108533528.284 6  84571608.06448  20653254.03548
  22252609.570 5 116938253.106 5  91120751.24047  22252618.39547
  21029623.664 6 110511373.050 6  86112797.94047  21029634.41047
 22  7  3 15 44 15.0000000  0  7G05G07G08G09G14G20G30               
  23621362.680 3 124131121.362 3  96725561.47946  23621371.95346
  21312690.906 6 111998943.235 6  87271938.57649  21312698.68049
  23826558.961 3 125209249.312 3  97565819.13547  23826571.18847
  22390420.445 5 117662452.994 5  91685057.12348  22390432.34448
  20652787.945 6 108531125.881 6  84569736.06348  20652796.51648
  22254124.508 5 116946216.171 5  91126956.22947  22254133.91847
  21030726.289 6 110517167.317 6  86117312.96048  21030737.30148
 22  7  3 15 44 20.0000000  0  7G05G07G08G09G14G20G30               
  23620662.039 4 124127441.140 4  96722693.80046  23620671.11746
  21315248.211 6 112012380.658 6  87282409.28449  21315255.99649
  23827911.078 3 125216357.784 3  97571358.20047  23827924.10547
  22393563.391 5 117678968.142 5  91697926.06648  22393575.05948
  20652334.406 6 108528743.564 6  84567879.71348  20652343.27348
  22255643.633 5 116954199.138 5  91133176.72447  22255652.96947
  21031831.148 6 110522972.322 6  86121836.34148  21031841.59048
 22  7  3 15 44 25.0000000  0  7G05G07G08G09G14G20G30               
  23619965.266 4 124123780.256 4  96719841.17446  23619974.48046
  21317806.586 6 112025827.409 6  87292887.27849  21317814.96549
  23829267.680 3 125223486.251 3  97576912.86447  23829279.68047
  22396708.922 5 117695498.551 5  91710806.89648  22396720.59448
  20651884.953 6 108526381.469 6  84566039.13048  20651893.60248
  22257166.508 5 116962202.120 5  91139412.81247  22257175.99247
  21032937.602 6 110528788.174 6  86126368.17748  21032948.02348
 22  7  3 15 44 30.0000000  0  7G05G07G08G09G14G20G30               
  23619272.242 4 124120138.232 4  96717003.23346  23619281.21146
  21320367.469 6 112039283.063 6  87303372.18849  21320375.35249
  23830628.539 3 125230634.391 3  97582482.85447  23830640.09847
  22399858.023 5 117712043.875 5  91723699.36348  22399869.05548
  20651438.711 6 108524039.154 6  84564213.94648  20651448.23048
  22258693.945 5 116970224.680 5  91145664.14547  22258702.63747
  21034046.680 6 110534614.396 6  86130908.08148  21034057.25048
 22  7  3 15 44 35.0000000  0  7G05G07G08G09G14G20G30               
  23618582.711 3 124116514.530 3  96714179.58346  23618591.36346
  21322929.578 6 112052747.062 6  87313863.62349  21322937.46149
  23831992.164 3 125237801.458 3  97588067.59947  23832004.37147
  22403009.023 5 117728603.552 5  91736603.00148  22403020.72748
  20650997.047 6 108521716.018 6  84562403.70948  20651006.31648
  22260224.656 5 116978266.138 5  91151930.21847  22260232.73047
  21035157.305 6 110540450.381 6  86135455.60847  21035167.80147
 22  7  3 15 44 40.0000000  0  7G05G07G08G09G14G20G30               
  23617895.977 3 124112909.805 3  96711370.67446  23617905.54346
  21325492.773 6 112066220.001 6  87324362.01049  21325501.02749
  23833359.250 2 125244987.990 2  97593667.49847  23833371.49247
  22406163.469 5 117745178.191 5  91749518.29448  22406174.35948
  20650558.656 6 108519412.751 6  84560608.96148  20650567.80148
  22261758.641 5 116986327.181 5  91158211.55447  22261766.82447
  21036269.602 6 110546296.811 6  86140011.26548  21036280.72348
 22  7  3 15 44 45.0000000  0  7G05G07G08G09G14G20G30               
  23617214.430 4 124109324.056 4  96708576.58046  23617223.19146
  21328058.445 6 112079702.007 6  87334867.46749  21328066.77049
  23834730.820 2 125252194.092 2  97599282.65247  23834742.84847
  22409319.328 5 117761767.779 5  91762445.24748  22409331.40248
  20650124.297 6 108517129.378 6  84558829.71148  20650133.81348
  22263295.820 5 116994407.774 5  91164508.11847  22263304.57847
  21037384.789 6 110552153.708 6  86144575.10148  21037394.95348
 22  7  3 15 44 50.0000000  0  7G05G07G08G09G14G20G30               
  23616535.875 5 124105756.661 5  96705796.81146  23616544.14846
  21330625.914 6 112093192.315 6  87345379.39249  21330633.96949
  23836105.484 2 125259419.267 2  97604912.67247  23836118.17647
  22412479.430 5 117778371.700 5  91775383.36148  22412491.06648
  20649693.617 6 108514865.160 6  84557065.39248  20649702.67648
  22264836.719 5 117002507.283 5  91170819.41947  22264845.80147
  21038501.141 6 110558020.366 6  86149146.51448  21038511.33648
 22  7  3 15 44 55.0000000  0  7G05G07G08G09G14G20G30               
  23615860.633 4 124102207.722 4  96703031.42046  23615868.70346
  21333194.102 6 112106691.091 6  87355897.90949  21333202.29749
  23837483.898 3 125266663.664 3  97610557.65847  23837496.22347
  22415641.898 5 117794990.043 5  91788332.71648  22415653.64848
  20649265.945 6 108512620.314 6  84555316.15948  20649274.99248
  22266382.195 5 117010625.880 5  91177145.60747  22266390.47347
  21039619.211 6 110563896.948 6  86153725.67748  21039629.65648
 22  7  3 15 45  0.0000000  0  7G05G07G08G09G14G20G30               
  23615188.047 4 124098676.854 4  96700280.08946  23615197.05146
  21335764.539 6 112120197.835 6  87366422.64949  21335772.82049
  23838866.133 2 125273926.591 2  97616217.10347  23838878.37547
  22418807.156 5 117811622.332 5  91801292.94048  22418818.60248
  20648842.438 6 108510394.318 6  84553581.62748  20648851.19548
  22267929.797 5 117018763.055 5  91183486.25847  22267939.37547
  21040739.328 6 110569782.970 6  86158312.17848  21040749.87548
 22  7  3 15 45  5.0000000  0  7G05G07G08G09G14G20G30               
  23614518.961 4 124095164.679 4  96697543.35046  23614528.29746
  21338336.594 6 112133713.288 6  87376954.16149  21338344.37149
  23840250.945 1 125281208.732 1  97621891.52646  23840263.91846
  22421974.570 5 117828269.363 5  91814264.64848  22421986.41848
  20648423.023 6 108508187.999 6  84551862.41348  20648431.87948
  22269482.289 5 117026919.599 5  91189842.01047  22269491.37547
  21041861.133 6 110575679.177 6  86162906.62148  21041871.96148
 22  7  3 15 45 10.0000000  0  7G05G07G08G09G14G20G30               
  23613854.477 4 124091670.981 4  96694820.96446  23613863.95746
  21340909.992 6 112147237.144 6  87387492.22349  21340918.08249
  23841640.773 1 125288510.192 1  97627580.96747  23841653.66847
  22425145.375 5 117844930.810 5  91827247.59348  22425157.15248
  20648006.430 6 108506000.984 6  84550158.25048  20648015.43048
  22271038.656 5 117035095.112 5  91196212.52947  22271046.93047
  21042985.234 6 110581585.248 6  86167508.76148  21042995.68448
 22  7  3 15 45 15.0000000  0  7G05G07G08G09G14G20G30               
  23613193.383 3 124088195.240 3  96692112.60846  23613202.92646
  21343485.125 6 112160768.899 6  87398036.45349  21343492.93849
  23843034.586 2 125295830.222 2  97633284.88847  23843046.43447
  22428318.781 5 117861606.140 5  91840241.35848  22428330.13748
  20647594.008 6 108503832.798 6  84548468.75748  20647603.02048
  22272596.672 5 117043289.163 5  91202597.49047  22272606.02047
  21044110.625 6 110587500.722 6  86172118.22548  21044121.24648
 22  7  3 15 45 20.0000000  0  7G05G07G08G09G14G20G30               
  23612535.242 4 124084737.667 4  96689418.42346  23612545.00046
  21346061.625 6 112174308.677 6  87408586.92749  21346069.26649
  23844430.906 2 125303168.880 2  97639003.35347  23844442.64147
  22431494.938 5 117878295.498 5  91853246.05348  22431506.09048
  20647184.914 6 108501683.564 6  84546794.03848  20647193.76648
  22274160.102 5 117051501.824 5  91208996.99647  22274168.60547
  21045238.102 6 110593425.666 6  86176735.06548  21045249.13748
 22  7  3 15 45 25.0000000  0  7G05G07G08G09G14G20G30               
  23611880.461 5 124081298.170 5  96686738.28246  23611890.51246
  21348639.359 6 112187856.473 6  87419143.65949  21348647.52349
  23845830.852 1 125310526.205 1  97644736.31947  23845842.60547
  22434673.758 5 117894998.821 5  91866261.61848  22434684.93048
  20646779.563 6 108499553.286 6  84545134.07148  20646788.59848
  22275726.141 5 117059733.061 5  91215410.93247  22275734.99647
  21046367.578 6 110599360.079 6  86181359.28748  21046378.10948
 22  7  3 15 45 30.0000000  0  7G05G07G08G09G14G20G30               
  23611229.602 4 124077876.531 4  96684072.08546  23611239.21946
  21351219.172 6 112201412.054 6  87429706.44149  21351227.30549
  23847234.438 2 125317901.912 2  97650483.64047  23847245.82847
  22437854.086 5 117911715.915 5  91879287.91348  22437865.89848
  20646377.609 6 108497441.687 6  84543488.67148  20646386.46148
  22277296.234 5 117067982.600 5  91221839.15747  22277304.96147
  21047498.219 6 110605303.739 6  86185990.70948  21047508.89848
 22  7  3 15 45 35.0000000  0  7G05G07G08G09G14G20G30               
  23610581.672 5 124074472.870 5  96681419.88046  23610592.21146
  21353800.086 6 112214975.385 6  87440275.26649  21353808.37949
  23848640.633 2 125325296.039 2  97656245.31747  23848653.04347
  22441038.039 5 117928446.836 5  91892324.99148  22441049.48848
  20645979.359 6 108495348.848 6  84541857.88848  20645988.82048
  22278869.641 5 117076250.592 5  91228281.73547  22278878.20347
  21048630.953 6 110611256.653 6  86190629.35048  21048641.87548
 22  7  3 15 45 40.0000000  0  7G05G07G08G09G14G20G30               
  23609937.875 4 124071086.838 4  96678781.43746  23609947.52746
  21356382.867 6 112228546.380 6  87450850.06549  21356391.06349
  23850052.086 3 125332708.439 3  97662021.21847  23850063.76647
  22444224.680 6 117945191.341 6  91905372.64248  22444235.92648
  20645584.625 6 108493274.567 6  84540241.57448  20645593.82048
  22280446.086 5 117084536.760 5  91234738.49547  22280455.23447
  21049765.523 6 110617218.641 6  86195275.05348  21049776.63348
 22  7  3 15 45 45.0000000  0  7G05G07G08G09G14G20G30               
  23609297.727 4 124067718.933 4  96676157.10846  23609306.70746
  21358966.031 6 112242125.372 6  87461431.08849  21358974.97349
  23851466.445 3 125340139.452 3  97667811.64547  23851477.70347
  22447413.648 6 117961949.865 6  91918431.22148  22447424.64548
  20645193.398 6 108491219.286 6  84538640.05848  20645202.85948
  22282026.711 5 117092841.532 5  91241209.73447  22282035.70747
  21050902.148 6 110623190.129 6  86199928.16248  21050912.38748
 22  7  3 15 45 50.0000000  0  7G05G07G08G09G14G20G30               
  23608659.328 4 124064368.630 4  96673546.49246  23608669.46146
  21361551.844 6 112255711.776 6  87472017.89849  21361560.39549
  23852884.078 3 125347588.818 3  97673616.37147  23852895.75047
  22450604.930 6 117978721.848 6  91931500.30148  22450616.73448
  20644806.242 6 108489182.401 6  84537052.88348  20644815.25448
  22283610.250 5 117101164.338 5  91247695.04747  22283619.32847
  21052040.141 6 110629170.526 6  86204588.20848  21052050.87548
 22  7  3 15 45 55.0000000  0  7G05G07G08G09G14G20G30               
  23608025.320 4 124061036.155 4  96670949.75746  23608034.97746
  21364138.570 6 112269305.861 6  87482610.68449  21364147.32449
  23854305.398 3 125355056.338 3  97679435.24347  23854317.18447
  22453799.336 6 117995507.443 6  91944579.98048  22453810.31648
  20644421.539 6 108487164.157 6  84535480.22948  20644431.16048
  22285198.078 5 117109505.357 5  91254194.54247  22285206.50047
  21053179.656 6 110635160.060 6  86209255.38448  21053190.67648
 22  7  3 15 46  0.0000000  0  7G05G07G08G09G14G20G30               
  23607395.648 4 124057721.180 4  96668366.65246  23607404.13746
  21366726.703 6 112282907.317 6  87493209.22249  21366735.55549
  23855729.477 2 125362542.010 2  97685268.25647  23855741.80547
  22456996.367 6 118012306.375 6  91957670.05748  22457007.87148
  20644041.391 6 108485164.219 6  84533921.83748  20644050.43048
  22286788.234 5 117117864.319 5  91260708.01547  22286797.27347
  21054321.586 6 110641158.414 6  86213929.43048  21054332.18448
 22  7  3 15 46  5.0000000  0  7G05G07G08G09G14G20G30               
  23606767.078 4 124054423.682 4  96665797.19046  23606776.23846
  21369316.656 6 112296516.080 6  87503813.42849  21369325.42649
  23857158.047 2 125370045.800 2  97691115.35447  23857170.09047
  22460195.992 6 118029118.654 6  91970770.54348  22460206.71148
  20643663.914 6 108483182.609 6  84532377.72748  20643673.21948
  22288383.227 5 117126241.204 5  91267235.44747  22288391.41047
  21055464.836 6 110647165.561 6  86218610.33048  21055475.51248
 22  7  3 15 46 10.0000000  0  7G05G07G08G09G14G20G30               
  23606142.773 5 124051143.611 5  96663241.24346  23606152.03146
  21371908.000 6 112310132.042 6  87514423.27149  21371916.21949
  23858588.180 2 125377567.377 2  97696976.34247  23858601.15247
  22463397.453 6 118045944.098 6  91983881.26748  22463408.51248
  20643290.719 6 108481219.157 6  84530847.76648  20643299.89848
  22289980.758 5 117134635.772 5  91273776.65547  22289989.09047
  21056608.609 6 110653181.335 6  86223297.94248  21056620.06648
 22  7  3 15 46 15.0000000  0  7G05G07G08G09G14G20G30               
  23605522.102 4 124047881.382 4  96660699.27346  23605531.22346
  21374500.414 6 112323755.639 6  87525039.05449  21374509.12549
  23860021.703 2 125385107.279 2  97702851.60047  23860035.84847
  22466601.508 5 118062783.138 5  91997002.59248  22466613.27348
  20642920.430 6 108479274.323 6  84529332.31748  20642929.50048
  22291580.031 5 117143048.579 5  91280332.08347  22291589.44547
  21057755.492 6 110659206.198 6  86227992.63448  21057766.62948
 22  7  3 15 46 20.0000000  0  7G05G07G08G09G14G20G30               
  23604905.141 5 124044636.933 5  96658171.11346  23604914.18446
  21377094.797 6 112337386.890 6  87535660.80249  21377102.55549
  23861461.695 1 125392665.494 1  97708741.13647  23861473.79347
  22469808.383 5 118079635.875 5  92010134.59048  22469819.69948
  20642553.633 6 108477348.153 6  84527831.41348  20642563.15648
  22293185.641 5 117151479.584 5  91286901.70647  22293194.11347
  21058903.898 6 110665240.174 6  86232694.43948  21058915.12548
 22  7  3 15 46 25.0000000  0  7G05G07G08G09G14G20G30               
  23604290.258 5 124041409.736 5  96655656.43846  23604299.77046
  21379690.039 6 112351025.217 6  87546288.06749  21379697.71149
  23862902.656 2 125400241.532 2  97714644.55447  23862915.44947
  22473017.898 5 118096501.646 5  92023276.74948  22473029.45748
  20642190.750 6 108475440.089 6  84526344.62148  20642200.23448
  22294792.930 5 117159928.228 5  91293485.06447  22294801.69147
  21060053.688 6 110671282.762 6  86237402.95148  21060064.57448
 22  7  3 15 46 30.0000000  0  7G05G07G08G09G14G20G30               
  23603679.875 5 124038199.768 5  96653155.14246  23603689.24646
  21382286.688 6 112364670.511 6  87556920.76849  21382294.54749
  23864347.102 1 125407835.216 1  97720561.74347  23864359.62547
  22476230.102 5 118113380.432 5  92036429.01348  22476241.33248
  20641831.367 6 108473550.024 6  84524871.85048  20641840.36348
  22296405.125 5 117168394.367 5  91300082.05547  22296413.39847
  21061205.047 6 110677333.740 6  86242117.99848  21061216.39848
 22  7  3 15 46 35.0000000  0  7G05G07G08G09G14G20G30               
  23603071.992 5 124035007.607 5  96650667.76346  23603081.62546
  21384884.570 6 112378323.345 6  87567559.32949  21384892.84849
  23865795.438 1 125415447.258 1  97726493.18747  23865808.84447
  22479444.250 5 118130272.691 5  92049591.83848  22479455.64848
  20641475.180 6 108471678.482 6  84523413.49648  20641484.08648
  22298018.992 5 117176878.615 5  91306693.14947  22298028.00047
  21062358.313 6 110683393.748 6  86246840.07748  21062369.22348
 22  7  3 15 46 40.0000000  0  7G05G07G08G09G14G20G30               
  23602467.633 4 124031832.400 4  96648193.54446  23602477.62546
  21387484.258 6 112391982.997 6  87578203.22049  21387492.04349
  23867248.570 1 125423076.854 1  97732438.35647  23867260.58647
  22482661.016 5 118147177.759 5  92062764.60148  22482672.81648
  20641121.836 6 108469824.747 6  84521969.04548  20641131.54748
  22299636.797 5 117185380.133 5  91313317.71547  22299645.08247
  21063512.969 6 110689461.989 6  86251568.58648  21063524.29348
 22  7  3 15 46 45.0000000  0  7G05G07G08G09G14G20G30               
  23601866.719 5 124028674.185 5  96645732.61046  23601876.26646
  21390084.586 6 112405649.397 6  87588852.36049  21390092.48049
  23868703.531 1 125430723.865 1  97738397.10347  23868715.79747
  22485880.063 5 118164095.604 5  92075947.34148  22485892.21948
  20640772.953 6 108467988.849 6  84520538.47548  20640781.87148
  22301257.586 5 117193898.998 5  91319955.80747  22301266.55147
  21064669.336 6 110695538.479 6  86256303.50448  21064680.44948
 22  7  3 15 46 50.0000000  0  7G05G07G08G09G14G20G30               
  23601269.789 4 124025533.295 4  96643285.15246  23601278.77746
  21392686.375 6 112419322.900 6  87599507.02449  21392694.60549
  23870161.625 2 125438388.688 2  97744369.71447  23870174.22347
  22489103.297 5 118181026.554 5  92089140.27348  22489113.96548
  20640426.844 6 108466171.137 6  84519122.07448  20640436.25848
  22302882.000 5 117202435.514 5  91326607.63647  22302891.28147
  21065827.445 6 110701623.580 6  86261045.14148  21065837.97748
 22  7  3 15 46 55.0000000  0  7G05G07G08G09G14G20G30               
  23600675.742 5 124022409.832 5  96640851.32346  23600684.84446
  21395289.977 6 112433003.583 6  87610167.29749  21395297.97349
  23871624.531 2 125446071.514 2  97750356.33547  23871636.18447
  22492326.961 5 118197970.659 5  92102343.47748  22492338.27348
  20640084.570 6 108464371.575 6  84517719.83148  20640093.37548
  22304509.930 5 117210989.701 5  91333273.22747  22304518.54747
  21066986.938 6 110707717.302 6  86265793.49148  21066998.00448
 22  7  3 15 47  0.0000000  0  7G05G07G08G09G14G20G30               
  23600084.117 5 124019303.360 5  96638430.67946  23600093.55146
  21397894.547 6 112446690.944 6  87620832.77149  21397902.70349
  23873088.797 2 125453771.760 2  97756356.55047  23873101.68447
  22495553.586 5 118214927.474 5  92115556.55948  22495565.05948
  20639745.258 6 108462589.790 6  84516331.42348  20639754.87548
  22306140.656 5 117219561.153 5  91339952.30447  22306150.05147
  21068148.328 6 110713819.196 6  86270548.21948  21068159.14148
 22  7  3 15 47  5.0000000  0  7G05G07G08G09G14G20G30               
  23599495.602 5 124016213.667 5  96636023.12947  23599505.86747
  21400500.258 6 112460384.824 6  87631503.32649  21400508.45749
  23874557.539 1 125461489.265 1  97762370.20347  23874570.26647
  22498782.203 5 118231896.764 5  92128779.38048  22498794.72748
  20639410.000 6 108460825.573 6  84514956.71748  20639418.97348
  22307775.820 5 117228149.632 5  91346644.61547  22307784.20747
  21069311.016 6 110719929.087 6  86275309.16148  21069321.89848
 22  7  3 15 47 10.0000000  0  7G05G07G08G09G14G20G30               
  23598911.875 4 124013140.827 4  96633628.71446  23598921.28546
  21403106.500 6 112474085.229 6  87642178.94749  21403115.43849
  23876029.438 2 125469223.955 2  97768397.23247  23876042.32047
  22502014.086 5 118248878.617 5  92142011.97448  22502026.07848
  20639077.203 6 108459078.903 6  84513595.68348  20639086.39848
  22309413.375 5 117236755.082 5  91353350.15747  22309421.70347
  21070475.094 6 110726046.926 6  86280076.30948  21070486.16048
 22  7  3 15 47 15.0000000  0  7G05G07G08G09G14G20G30               
  23598330.313 4 124010085.601 4  96631248.03946  23598339.94546
  21405715.711 6 112487792.989 6  87652860.32149  21405724.08249
  23877504.820 2 125476976.850 2  97774438.49347  23877517.73047
  22505248.258 5 118265873.788 5  92155254.95448  22505260.34848
  20638748.469 6 108457350.718 6  84512249.05148  20638757.74248
  22311054.391 5 117245378.441 5  91360069.65347  22311062.62147
  21071641.250 6 110732173.632 6  86284850.37148  21071651.65248
 22  7  3 15 47 20.0000000  0  7G05G07G08G09G14G20G30               
  23597752.813 5 124007047.581 5  96628880.73647  23597762.05947
  21408325.336 6 112501507.751 6  87663547.14649  21408334.03549
  23878982.727 2 125484747.407 2  97780493.47147  23878996.48047
  22508485.055 5 118282881.817 5  92168507.96448  22508496.70348
  20638422.844 6 108455640.474 6  84510916.39648  20638431.89848
  22312698.039 5 117254019.224 5  91366802.71447  22312706.99647
  21072808.086 6 110738308.667 6  86289630.91548  21072818.89848
 22  7  3 15 47 25.0000000  0  7G05G07G08G09G14G20G30               
  23597176.711 5 124004026.821 5  96626526.90147  23597186.87147
  21410936.859 6 112515229.430 6  87674239.36149  21410945.51249
  23880465.891 2 125492535.477 2  97786562.11147  23880478.84847
  22511723.648 5 118299902.806 5  92181771.06948  22511735.92248
  20638101.023 6 108453948.229 6  84509597.77048  20638110.20348
  22314346.047 5 117262677.456 5  91373549.40047  22314354.41047
  21073977.492 6 110744452.122 6  86294418.03148  21073988.10948
 22  7  3 15 47 30.0000000  0  7G05G07G08G09G14G20G30               
  23596605.344 5 124001023.000 5  96624186.25447  23596615.53147
  21413548.945 6 112528957.647 6  87684936.67249  21413557.25849
  23881950.297 2 125500340.992 2  97792644.32547  23881964.08647
  22514965.344 5 118316936.370 5  92195043.97448  22514977.23048
  20637782.453 6 108452273.696 6  84508292.94248  20637791.99648
  22315996.352 6 117271352.794 6  91380309.40747  22316005.27747
  21075148.055 6 110750603.630 6  86299211.41948  21075158.46548
 22  7  3 15 47 35.0000000  0  7G05G07G08G09G14G20G30               
  23596037.055 5 123998036.133 5  96621858.85046  23596046.50846
  21416162.781 6 112542692.617 6  87695639.23449  21416171.24649
  23883439.734 3 125508163.996 3  97798740.18947  23883452.60947
  22518209.078 5 118333982.607 5  92208326.75648  22518221.23048
  20637467.266 6 108450616.954 6  84507001.97448  20637476.35948
  22317650.930 6 117280045.339 6  91387082.80847  22317659.55947
  21076319.891 6 110756763.319 6  86304011.17148  21076330.62148
 22  7  3 15 47 40.0000000  0  7G05G07G08G09G14G20G30               
  23595471.977 4 123995066.025 4  96619544.45446  23595481.38746
  21418777.391 6 112556433.854 6  87706346.69349  21418786.39549
  23884931.344 3 125516004.079 3  97804849.38247  23884944.69147
  22521454.813 5 118351041.200 5  92221619.17648  22521467.20748
  20637155.055 6 108448977.639 6  84505724.58748  20637164.38748
  22319308.508 6 117288754.658 6  91393869.28747  22319316.33247
  21077493.789 6 110762930.840 6  86308817.04148  21077504.78148
 22  7  3 15 47 45.0000000  0  7G05G07G08G09G14G20G30               
  23594910.008 4 123992112.976 4  96617243.41046  23594919.18846
  21421393.547 6 112570181.906 6  87717059.44749  21421402.26249
  23886426.984 3 125523861.792 3  97810972.29347  23886439.47347
  22524704.883 5 118368112.545 5  92234921.51348  22524715.86748
  20636846.234 6 108447356.184 6  84504461.12548  20636855.55548
  22320968.148 6 117297481.245 6  91400669.24047  22320977.35247
  21078669.227 6 110769106.563 6  86313629.28648  21078679.83648
 22  7  3 15 47 50.0000000  0  7G05G07G08G09G14G20G30               
  23594351.898 4 123989176.779 4  96614955.44246  23594360.56346
  21424010.055 6 112583936.352 6  87727777.18849  21424019.68849
  23887925.602 3 125531736.784 3  97817108.64647  23887938.21947
  22527954.797 5 118385196.342 5  92248233.54648  22527967.03148
  20636541.625 6 108445752.296 6  84503211.34348  20636550.64848
  22322632.547 6 117306224.814 6  91407482.38847  22322640.81347
  21079845.898 6 110775290.213 6  86318447.72548  21079856.25448
 22  7  3 15 47 55.0000000  0  7G05G07G08G09G14G20G30               
  23593795.398 4 123986257.381 4  96612680.60246  23593804.78546
  21426629.281 6 112597697.203 6  87738499.93549  21426638.16449
  23889426.680 2 125539628.856 2  97823258.32747  23889440.13347
  22531207.875 4 118402292.607 4  92261555.29748  22531220.03148
  20636239.383 6 108444165.954 6  84501975.23248  20636248.66448
  22324299.883 6 117314985.230 6  91414308.69547  22324308.32047
  21081024.391 6 110781481.791 6  86323272.33148  21081034.32848
 22  7  3 15 48  0.0000000  0  7G05G07G08G09G14G20G30               
  23593243.125 3 123983355.033 3  96610419.04246  23593252.38346
  21429249.414 6 112611464.685 6  87749227.82849  21429257.98849
  23890932.773 1 125547538.293 1  97829421.55847  23890945.15247
  22534464.531 5 118419401.465 5  92274886.86048  22534475.84448
  20635940.813 6 108442597.391 6  84500752.97948  20635950.25848
  22325970.172 5 117323762.770 5  91421148.32947  22325978.66047
  21082203.930 6 110787681.475 6  86328103.24948  21082214.26248
 22  7  3 15 48  5.0000000  0  7G05G07G08G09G14G20G30               
  23592693.992 4 123980468.719 4  96608169.95946  23592703.66446
  21431869.961 6 112625237.806 6  87759960.12849  21431879.50849
  23892439.602 1 125555464.253 1  97835597.63247  23892452.28547
  22537721.102 5 118436521.938 5  92288227.49148  22537733.87148
  20635645.992 6 108441045.575 6  84499543.78148  20635654.87548
  22327642.914 6 117332556.452 6  91428000.54547  22327651.60247
  21083385.219 6 110793888.282 6  86332939.72548  21083395.32448
 22  7  3 15 48 10.0000000  0  7G05G07G08G09G14G20G30               
  23592147.070 4 123977598.799 4  96605933.64846  23592156.39146
  21434492.602 6 112639016.992 6  87770697.15649  21434501.68049
  23893952.719 2 125563407.134 2  97841786.89747  23893964.38347
  22540981.781 5 118453654.476 5  92301577.50748  22540993.53148
  20635353.164 6 108439510.978 6  84498348.00048  20635362.34048
  22329320.320 5 117341366.660 5  91434865.64347  22329328.27047
  21084567.602 6 110800102.593 6  86337782.04248  21084577.69548
 22  7  3 15 48 15.0000000  0  7G05G07G08G09G14G20G30               
  23591605.070 4 123974745.591 4  96603710.39646  23591613.99646
  21437115.438 6 112652802.482 6  87781439.08049  21437124.58649
  23895466.242 2 125571367.018 2  97847989.41547  23895478.73447
  22544244.852 5 118470799.265 5  92314937.07648  22544256.35948
  20635065.023 6 108437993.764 6  84497165.74348  20635074.07848
  22330999.852 5 117350193.572 5  91441743.75147  22331007.80147
  21085751.680 6 110806324.665 6  86342630.41648  21085762.09448
 22  7  3 15 48 20.0000000  0  7G05G07G08G09G14G20G30               
  23591065.242 4 123971909.226 4  96601500.24246  23591074.28546
  21439740.313 6 112666594.294 6  87792185.96749  21439749.50449
  23896984.344 2 125579344.126 2  97854205.35747  23896997.06347
  22547509.453 5 118487956.431 5  92328306.29048  22547520.71548
  20634779.359 6 108436494.072 6  84495997.16448  20634789.07448
  22332682.516 5 117359037.394 5  91448635.04047  22332690.96547
  21086936.398 6 110812554.583 6  86347484.89948  21086947.63748
 22  7  3 15 48 25.0000000  0  7G05G07G08G09G14G20G30               
  23590528.242 5 123969089.631 5  96599303.18946  23590537.67246
  21442366.258 5 112680392.474 5  87802937.78549  21442374.86349
  23898505.945 2 125587338.368 2  97860434.64147  23898517.91847
  22550776.727 5 118505125.963 5  92341685.15148  22550788.09048
  20634497.648 6 108435011.912 6  84494842.23548  20634506.61348
  22334368.703 5 117367898.026 5  91455539.42447  22334377.30147
  21088123.930 6 110818792.355 6  86352345.50148  21088134.62548
 22  7  3 15 48 30.0000000  0  7G05G07G08G09G14G20G30               
  23589994.813 5 123966286.342 5  96597118.80346  23590004.32446
  21444993.063 6 112694196.599 6  87813694.24649  21445001.74249
  23900029.781 2 125595349.396 2  97866677.00847  23900042.42647
  22554046.766 5 118522307.427 5  92355073.27448  22554058.34448
  20634218.094 6 108433546.807 6  84493700.60548  20634227.78548
  22336057.883 6 117376775.040 6  91462456.57647  22336066.52747
  21089312.539 6 110825037.533 6  86357211.87648  21089322.93448
 22  7  3 15 48 35.0000000  0  7G05G07G08G09G14G20G30               
  23589464.453 5 123963499.459 5  96594947.24746  23589473.71546
  21447620.141 5 112708006.670 5  87824455.34849  21447629.43849
  23901557.352 2 125603377.206 2  97872932.45347  23901570.27047
  22557317.805 5 118539500.828 5  92368470.73048  22557329.84048
  20633943.180 6 108432098.860 6  84492572.32748  20633952.15248
  22337750.422 6 117385668.458 6  91469386.52547  22337758.92247
  21090501.906 6 110831290.124 6  86362084.01848  21090512.69548
 22  7  3 15 48 40.0000000  0  7G05G07G08G09G14G20G30               
  23588937.656 5 123960729.214 5  96592788.60946  23588947.44546
  21450249.602 6 112721822.911 6  87835221.25649  21450258.79349
  23903088.977 2 125611422.012 2  97879201.14647  23903101.08647
  22560592.484 5 118556706.386 5  92381877.63748  22560603.53548
  20633670.945 6 108430668.251 6  84491457.56448  20633680.23448
  22339445.797 5 117394578.513 5  91476329.40947  22339454.29347
  21091693.328 6 110837550.396 6  86366962.14848  21091704.02748
 22  7  3 15 48 45.0000000  0  7G05G07G08G09G14G20G30               
  23588413.773 5 123957975.394 5  96590642.79546  23588422.82846
  21452879.750 6 112735645.022 6  87845991.73149  21452889.00049
  23904623.664 2 125619483.529 2  97885482.84547  23904634.90647
  22563868.992 5 118573923.828 5  92395293.82048  22563880.01648
  20633401.961 6 108429254.688 6  84490356.09448  20633411.26648
  22341144.617 5 117403504.884 5  91483285.01847  22341152.88347
  21092886.359 6 110843818.000 6  86371845.98848  21092897.29748
 22  7  3 15 48 50.0000000  0  7G05G07G08G09G14G20G30               
  23587891.813 5 123955238.042 5  96588509.78746  23587902.52346
  21455511.563 6 112749473.101 6  87856766.85449  21455520.54749
  23906160.000 2 125627561.905 2  97891777.72247  23906171.95747
  22567147.094 5 118591153.258 5  92408719.34648  22567158.73048
  20633136.141 6 108427858.285 6  84489267.99648  20633145.36748
  22342846.336 5 117412447.691 5  91490253.42847  22342854.18447
  21094080.023 6 110850093.061 6  86376735.65248  21094090.83648
 22  7  3 15 48 55.0000000  0  7G05G07G08G09G14G20G30               
  23587374.602 5 123952517.332 5  96586389.73346  23587384.31646
  21458143.859 6 112763307.343 6  87867546.77849  21458153.09049
  23907700.797 2 125635657.167 2  97898085.72247  23907712.29347
  22570429.047 5 118608394.790 5  92422154.29348  22570439.75448
  20632873.375 6 108426479.227 6  84488193.40748  20632883.02048
  22344551.102 6 117421407.062 6  91497234.75647  22344560.06647
  21095276.039 6 110856375.753 6  86381631.23548  21095286.78948
 22  7  3 15 49  0.0000000  0  7G05G07G08G09G14G20G30               
  23586860.164 5 123949812.781 5  96584282.30746  23586869.79746
  21460777.336 6 112777147.313 6  87878331.16348  21460786.65248
  23909244.695 1 125643769.195 1  97904406.77347  23909255.63347
  22573711.547 5 118625648.076 5  92435598.39948  22573722.79748
  20632614.031 6 108425117.103 6  84487132.02148  20632623.29748
  22346258.906 5 117430382.632 5  91504228.70047  22346267.67647
  21096472.695 6 110862665.686 6  86386532.48648  21096483.71948
 22  7  3 15 49  5.0000000  0  7G05G07G08G09G14G20G30               
  23586349.656 5 123947124.906 5  96582187.86846  23586358.53546
  21463412.695 6 112790993.400 6  87889120.32349  21463421.30549
  23910790.539 1 125651898.091 1  97910740.97947  23910802.99647
  22576997.844 5 118642913.460 5  92449051.95148  22577008.42248
  20632358.609 6 108423772.279 6  84486084.10448  20632368.01648
  22347970.109 6 117439374.757 6  91511235.55047  22347978.57847
  21097671.086 6 110868963.173 6  86391439.62348  21097681.71148
 22  7  3 15 49 10.0000000  0  7G05G07G08G09G14G20G30               
  23585840.273 5 123944453.381 5  96580106.14346  23585849.97346
  21466048.578 6 112804845.322 6  87899914.02949  21466057.13749
  23912342.188 1 125660043.653 1  97917088.17146  23912352.94546
  22580285.250 5 118660190.683 5  92462514.71148  22580296.08248
  20632105.602 6 108422444.496 6  84485049.47948  20632114.78948
  22349684.359 5 117448383.092 5  91518255.03247  22349692.85247
  21098870.328 6 110875268.016 6  86396352.48348  21098881.80148
 22  7  3 15 49 15.0000000  0  7G05G07G08G09G14G20G30               
  23585334.969 5 123941798.545 5  96578037.43846  23585344.92246
  21468686.195 6 112818703.448 6  87910712.56349  21468694.48449
  23913894.758 1 125668206.313 1  97923448.67947  23913906.56647
  22583574.219 5 118677480.092 5  92475986.97148  22583586.06648
  20631856.383 6 108421134.109 6  84484028.40848  20631865.85948
  22351402.414 5 117457408.067 5  91525287.47647  22351410.55147
  21100071.414 6 110881580.486 6  86401271.29548  21100082.51248
 22  7  3 15 49 20.0000000  0  7G05G07G08G09G14G20G30               
  23584832.547 5 123939160.305 5  96575981.68946  23584842.71946
  21471324.398 6 112832567.567 6  87921515.76949  21471332.20349
  23915450.820 1 125676385.686 1  97929822.26447  23915463.16847
  22586867.055 5 118694781.500 5  92489468.61348  22586878.44148
  20631610.359 6 108419840.956 6  84483020.76248  20631619.54748
  22353122.492 6 117466449.466 6  91532332.74747  22353130.87547
  21101274.734 6 110887900.482 6  86406195.96448  21101285.54348
 22  7  3 15 49 25.0000000  0  7G05G07G08G09G14G20G30               
  23584333.875 5 123936538.475 5  96573938.69247  23584344.00047
  21473963.617 6 112846437.600 6  87932323.57849  21473971.80949
  23917011.063 2 125684581.809 2  97936208.85147  23917022.84447
  22590160.891 5 118712094.783 5  92502959.46248  22590173.10948
  20631367.242 6 108418564.916 6  84482026.45248  20631376.35948
  22354845.875 6 117475507.159 6  91539390.66047  22354854.79747
  21102478.648 6 110894227.816 6  86411126.36748  21102489.82448
 22  7  3 15 49 30.0000000  0  7G05G07G08G09G14G20G30               
  23583837.594 5 123933932.753 5  96571908.24647  23583848.28947
  21476603.813 6 112860313.280 6  87943135.79849  21476611.98449
  23918573.711 3 125692794.353 3  97942608.26247  23918585.41447
  22593458.359 5 118729419.612 5  92516459.31648  22593470.28148
  20631128.109 6 108417305.655 6  84481045.21248  20631137.21148
  22356572.688 6 117484580.815 6  91546461.06047  22356581.28547
  21103684.469 6 110900562.209 6  86416062.26548  21103695.19948
 22  7  3 15 49 35.0000000  0  7G05G07G08G09G14G20G30               
  23583344.430 5 123931343.273 5  96569890.49946  23583355.70746
  21479245.844 6 112874194.603 6  87953952.40149  21479253.57049
  23920139.609 2 125701023.570 2  97949020.63547  23920151.59447
  22596757.359 5 118746756.104 5  92529968.25548  22596769.40648
  20630891.430 6 108416063.278 6  84480077.12848  20630900.37948
  22358302.141 6 117493670.590 6  91553543.98147  22358310.96147
  21104890.883 6 110906903.744 6  86421003.71948  21104902.17248
 22  7  3 15 49 40.0000000  0  7G05G07G08G09G14G20G30               
  23582855.070 5 123928770.036 5  96567885.38147  23582866.09047
  21481888.211 6 112888081.608 6  87964773.44249  21481896.49649
  23921708.367 2 125709269.186 2  97955445.78947  23921720.72347
  22600059.125 5 118764104.289 5  92543486.32049  22600070.76649
  20630658.281 6 108414837.843 6  84479122.24748  20630667.35248
  22360035.078 6 117502776.451 6  91560639.47547  22360043.29747
  21106099.141 6 110913252.477 6  86425950.79148  21106109.70748
 22  7  3 15 49 45.0000000  0  7G05G07G08G09G14G20G30               
  23582369.367 5 123926213.187 5  96565893.04146  23582379.29346
  21484531.695 6 112901974.447 6  87975599.02149  21484540.09449
  23923280.617 2 125717531.508 2  97961883.96547  23923292.69947
  22603362.664 5 118781464.300 5  92557013.59848  22603374.56348
  20630428.617 6 108413629.507 6  84478180.69648  20630437.39848
  22361771.445 5 117511898.528 5  91567747.57547  22361779.59847
  21107308.563 6 110919608.549 6  86430903.57048  21107319.01248
 22  7  3 15 49 50.0000000  0  7G05G07G08G09G14G20G30               
  23581885.922 4 123923672.545 4  96563913.35246  23581895.41446
  21487176.570 6 112915872.826 6  87986428.92549  21487184.75849
  23924856.031 1 125725810.351 1  97968334.99947  23924868.18447
  22606667.961 5 118798835.849 5  92570549.86248  22606679.68448
  20630201.695 6 108412437.949 6  84477252.21248  20630211.01648
  22363509.719 5 117521036.584 5  91574868.14747  22363518.68047
  21108519.641 6 110925971.625 6  86435861.80448  21108530.41048
 22  7  3 15 49 55.0000000  0  7G05G07G08G09G14G20G30               
  23581405.820 5 123921148.341 5  96561946.41846  23581415.07446
  21489823.156 6 112929777.040 6  87997263.36949  21489831.00849
  23926434.922 2 125734105.785 2  97974798.97247  23926446.96947
  22609975.742 5 118816219.244 5  92584095.35648  22609987.71148
  20629978.430 6 108411263.528 6  84476337.08848  20629987.46948
  22365252.313 6 117530190.896 6  91582001.38247  22365260.06647
  21109731.672 6 110932342.039 6  86440825.76048  21109742.41848
 22  7  3 15 50  0.0000000  0  7G05G07G08G09G14G20G30               
  23580927.727 5 123918640.318 5  96559992.12146  23580938.14846
  21492469.914 6 112943686.858 6  88008102.18749  21492477.77749
  23928016.750 1 125742417.739 1  97981275.82047  23928027.97747
  22613286.063 5 118833614.251 5  92597649.90048  22613297.64148
  20629758.250 6 108410105.953 6  84475435.08448  20629767.04348
  22366996.891 6 117539361.306 6  91589147.13947  22367005.03547
  21110945.398 6 110938719.568 6  86445795.25748  21110956.40248
 22  7  3 15 50  5.0000000  0  7G05G07G08G09G14G20G30               
  23580453.391 5 123916148.624 5  96558050.52646  23580463.35246
  21495117.594 6 112957602.342 6  88018945.40249  21495126.18849
  23929601.906 2 125750746.400 2  97987765.65347  23929613.44547
  22616598.500 5 118851021.088 5  92611213.64348  22616610.07048
  20629540.938 6 108408965.351 6  84474546.31248  20629549.52048
  22368744.641 6 117548547.749 6  91596305.39847  22368753.20347
  21112160.031 6 110945104.250 6  86450770.34348  21112170.87948
 22  7  3 15 50 10.0000000  0  7G05G07G08G09G14G20G30               
  23579982.719 5 123913673.206 5  96556121.62847  23579992.27047
  21497767.117 6 112971523.486 6  88029793.05049  21497775.25849
  23931189.250 3 125759091.483 3  97994268.29347  23931201.77047
  22619913.609 5 118868439.430 5  92624786.39348  22619924.87148
  20629327.531 6 108407841.668 6  84473670.71348  20629336.10948
  22370496.492 6 117557750.198 6  91603476.12247  22370504.52347
  21113376.711 6 110951496.092 6  86455750.99548  21113387.71948
 22  7  3 15 50 15.0000000  0  7G05G07G08G09G14G20G30               
  23579514.680 4 123911214.045 4  96554205.40646  23579524.34846
  21500417.359 6 112985450.315 6  88040645.11649  21500425.42249
  23932780.844 2 125767453.193 2  98000783.90647  23932792.91447
  22623229.797 5 118885869.419 5  92638368.19348  22623241.62948
  20629116.672 6 108406734.913 6  84472808.31648  20629125.33248
  22372251.195 6 117566968.712 6  91610659.38447  22372259.30547
  21114594.313 6 110957895.102 6  86460737.22848  21114605.35248
 22  7  3 15 50 20.0000000  0  7G05G07G08G09G14G20G30               
  23579050.047 5 123908771.047 5  96552301.77246  23579059.63346
  21503068.742 6 112999382.613 6  88051501.44449  21503076.81349
  23934374.750 2 125775831.296 2  98007312.31347  23934387.30947
  22626549.281 5 118903310.850 5  92651958.89348  22626560.49248
  20628909.508 6 108405644.885 6  84471958.95048  20628918.29348
  22374007.672 6 117576202.998 6  91617854.91347  22374016.32847
  21115813.250 6 110964301.025 6  86465728.86148  21115824.28548
 22  7  3 15 50 25.0000000  0  7G05G07G08G09G14G20G30               
  23578587.570 5 123906343.986 5  96550410.55946  23578597.39546
  21505720.703 6 113013320.277 6  88062361.94549  21505729.06349
  23935971.727 2 125784225.558 2  98013853.27147  23935985.04747
  22629870.461 5 118920763.612 5  92665558.44248  22629881.41848
  20628704.852 6 108404571.523 6  84471122.57148  20628713.91448
  22375768.023 6 117585452.990 6  91625062.69247  22375776.69947
  21117033.938 6 110970713.805 6  86470725.82448  21117044.51648
 22  7  3 15 50 30.0000000  0  7G05G07G08G09G14G20G30               
  23578128.977 5 123903933.020 5  96548531.88946  23578138.83646
  21508373.945 6 113027263.350 6  88073226.67249  21508382.74249
  23937572.008 1 125792636.121 1  98020406.93147  23937585.30947
  22633193.633 5 118938227.792 5  92679166.87848  22633204.84848
  20628503.953 6 108403514.852 6  84470299.19348  20628512.66448
  22377531.781 6 117594718.762 6  91632282.77047  22377539.71147
  21118254.797 6 110977133.460 6  86475728.15748  21118266.20748
 22  7  3 15 50 35.0000000  0  7G05G07G08G09G14G20G30               
  23577672.883 5 123901537.877 5  96546665.54547  23577682.65647
  21511028.055 6 113041211.635 6  88084095.45549  21511036.50849
  23939175.313 1 125801062.897 1  98026973.24747  23939188.82047
  22636519.211 5 118955703.128 5  92692784.00248  22636530.41448
  20628305.758 6 108402474.690 6  84469488.68248  20628314.53548
  22379297.570 6 117604000.052 6  91639514.93747  22379305.48847
  21119478.039 6 110983559.820 6  86480735.69848  21119489.26248
 22  7  3 15 50 40.0000000  0  7G05G07G08G09G14G20G30               
  23577221.266 5 123899158.970 5  96544811.86447  23577229.97347
  21513683.883 6 113055165.520 6  88094968.60849  21513691.98449
  23940782.531 1 125809506.256 1  98033552.49147  23940795.64847
  22639847.344 5 118973190.113 5  92706410.21248  22639858.12948
  20628111.508 6 108401451.471 6  84468691.37348  20628120.13348
  22381066.633 6 117613297.333 6  91646759.57547  22381074.62147
  21120701.984 6 110989993.318 6  86485748.81348  21120713.25048
 22  7  3 15 50 45.0000000  0  7G05G07G08G09G14G20G30               
  23576771.383 4 123896796.379 4  96542970.87146  23576780.55146
  21516340.211 6 113069124.996 6  88105846.12549  21516348.64849
  23942393.000 1 125817966.051 1  98040144.54347  23942405.07447
  22643176.820 5 118990688.657 5  92720045.43448  22643188.14848
  20627919.625 6 108400445.128 6  84467907.21548  20627928.86348
  22382838.430 5 117622610.473 5  91654016.56747  22382847.18447
  21121927.688 6 110996433.851 6  86490767.40248  21121939.02348
 22  7  3 15 50 50.0000000  0  7G05G07G08G09G14G20G30               
  23576325.156 5 123894449.685 5  96541142.28746  23576334.38346
  21518997.039 6 113083089.675 6  88116727.68849  21519005.50849
  23944005.852 1 125826441.857 1  98046749.07547  23944018.25847
  22646508.094 5 119008198.318 5  92733689.31448  22646520.00848
  20627731.320 6 108399455.235 6  84467135.87248  20627740.00048
  22384613.898 5 117631939.203 5  91661285.71247  22384622.57847
  21123154.625 6 111002881.034 6  86495791.19248  21123165.84448
 22  7  3 15 50 55.0000000  0  7G05G07G08G09G14G20G30               
  23575881.453 5 123892119.064 5  96539326.22146  23575890.15646
  21521655.945 6 113097059.718 6  88127613.43249  21521663.98049
  23945621.586 1 125834934.014 1  98053366.29547  23945633.93847
  22649843.063 5 119025719.363 5  92747342.07348  22649854.25848
  20627546.289 6 108398482.047 6  84466377.55348  20627555.17648
  22386392.727 5 117641283.571 5  91668567.02047  22386400.59847
  21124382.484 6 111009335.083 6  86500820.31848  21124393.94948
 22  7  3 15 51  0.0000000  0  7G05G07G08G09G14G20G30               
  23575440.484 4 123889804.317 4  96537522.52846  23575450.09846
  21524314.914 6 113111035.013 6  88138503.25849  21524323.46149
  23947241.094 1 125843442.266 1  98059996.09147  23947252.84447
  22653178.719 5 119043251.594 5  92761003.52548  22653190.29348
  20627363.969 6 108397525.414 6  84465632.13048  20627373.02348
  22388173.930 6 117650643.540 6  91675860.52247  22388181.64147
  21125612.148 6 111015795.843 6  86505854.68248  21125623.30948
 22  7  3 15 51  5.0000000  0  7G05G07G08G09G14G20G30               
  23575003.195 5 123887505.612 5  96535731.33246  23575012.62946
  21526975.195 6 113125015.636 6  88149397.24049  21526984.00849
  23948863.273 1 125851966.735 1  98066638.52646  23948875.03146
  22656517.453 5 119060795.146 5  92774673.82348  22656529.04748
  20627184.766 6 108396585.411 6  84464899.65648  20627193.98448
  22389957.906 6 117660019.125 6  91683166.14247  22389965.87147
  21126843.227 6 111022263.396 6  86510894.32648  21126854.23048
 22  7  3 15 51 10.0000000  0  7G05G07G08G09G14G20G30               
  23574569.125 5 123885223.182 5  96533952.81546  23574578.10946
  21529636.891 6 113139001.810 6  88160295.55449  21529645.53549
  23950487.844 1 125860507.724 1  98073293.85047  23950500.27747
  22659857.797 5 119078350.251 5  92788353.11748  22659869.08648
  20627009.852 6 108395662.313 6  84464180.36348  20627018.62548
  22391744.813 6 117669410.631 6  91690484.19947  22391753.04747
  21128075.039 6 111028738.015 6  86515939.47948  21128086.14848
 22  7  3 15 51 15.0000000  0  7G05G07G08G09G14G20G30               
  23574137.977 4 123882956.808 4  96532186.81646  23574146.85546
  21532299.664 6 113152993.220 6  88171197.95449  21532308.14149
  23952116.680 1 125869064.877 1  98079961.75946  23952128.24246
  22663200.602 5 119095916.565 5  92802041.13548  22663212.36748
  20626837.195 6 108394755.800 6  84463473.99648  20626845.86348
  22393534.844 6 117678817.715 6  91697814.40347  22393543.22347
  21129308.633 7 111035219.384 7  86520989.89848  21129319.18848
 22  7  3 15 51 20.0000000  0  7G05G07G08G09G14G20G30               
  23573709.375 5 123880706.065 5  96530432.99946  23573718.23846
  21534962.430 6 113166989.495 6  88182104.13649  21534971.48049
  23953747.391 2 125877637.836 2  98086641.98447  23953759.28147
  22666545.648 5 119113493.732 5  92815737.62748  22666556.87548
  20626667.617 6 108393865.492 6  84462780.25148  20626676.62548
  22395328.242 6 117688239.969 6  91705156.41647  22395336.10547
  21130542.969 7 111041707.107 7  86526045.27148  21130553.67248
 22  7  3 15 51 25.0000000  0  7G05G07G08G09G14G20G30               
  23573283.836 5 123878471.763 5  96528692.00146  23573293.21146
  21537627.273 6 113180991.442 6  88193014.74149  21537635.78549
  23955382.914 3 125886227.337 3  98093335.09647  23955394.16847
  22669893.016 5 119131082.590 5  92829443.21648  22669904.37548
  20626501.266 6 108392992.253 6  84462099.81348  20626510.38348
  22397123.953 6 117697678.279 6  91712510.93147  22397132.10247
  21131779.242 6 111048202.020 6  86531106.24048  21131789.59448
 22  7  3 15 51 30.0000000  0  7G05G07G08G09G14G20G30               
  23572861.664 5 123876253.542 5  96526963.51646  23572870.96946
  21540292.773 6 113194998.754 6  88203929.52649  21540301.81349
  23957020.469 2 125894833.207 2  98100040.95847  23957032.14547
  22673241.391 5 119148682.765 5  92843157.63748  22673253.32048
  20626338.375 6 108392135.696 6  84461432.36748  20626347.88348
  22398922.734 6 117707132.233 6  91719877.63847  22398931.00447
  21133015.992 7 111054703.767 7  86536172.54548  21133026.58648
 22  7  3 15 51 35.0000000  0  7G05G07G08G09G14G20G30               
  23572443.883 5 123874051.426 5  96525247.58146  23572451.96146
  21542958.750 6 113209011.396 6  88214848.47549  21542968.14849
  23958660.695 2 125903455.418 2  98106759.53647  23958673.05547
  22676593.109 5 119166294.215 5  92856880.84148  22676604.85948
