     2.11           OBSERVATION DATA    GPS(GPS)            RINEX VERSION / TYPE
cnvtToRINEX 3.14.0  convertToRINEX OPR  20220810 190643 UTC PGM / RUN BY / DATE 
----------------------------------------------------------- COMMENT             
SC-HV-75                                                    MARKER NAME         
SC-HV-75                                                    MARKER NUMBER       
GNSS Observer       Trimble                                 OBSERVER / AGENCY   
4906165579          TRIMBLE 5700II      4.02                REC # / TYPE / VERS 
60266723            TRM39105.00                             ANT # / TYPE        
  3665737.5447 -4234303.2452 -3041640.3406                  APPROX POSITION XYZ 
        1.5600        0.0000        0.0000                  ANTENNA: DELTA H/E/N
     1     1     0                                          WAVELENGTH FACT L1/2
     4    C1    L1    L2    P2                              # / TYPES OF OBSERV 
  2022     7     3    17     9   15.0000000     GPS         TIME OF FIRST OBS   
  2022     7     3    17    58   55.0000000     GPS         TIME OF LAST OBS    
     0                                                      RCV CLOCK OFFS APPL 
    18                                                      LEAP SECONDS        
     9                                                      # OF SATELLITES     
   G05   584   580   580   584                              PRN / # OF OBS      
   G07   584   584   584   584                              PRN / # OF OBS      
   G13   597   597   597   597                              PRN / # OF OBS      
   G14   597   597   597   597                              PRN / # OF OBS      
   G15   476   476   476   476                              PRN / # OF OBS      
   G17   597   597   597   597                              PRN / # OF OBS      
   G19   590   590   590   590                              PRN / # OF OBS      
   G20   170   162   162   170                              PRN / # OF OBS      
   G30   597   597   597   597                              PRN / # OF OBS      
CARRIER PHASE MEASUREMENTS: PHASE SHIFTS REMOVED            COMMENT             
                                                            END OF HEADER       
 22  7  3 17  9 15.0000000  0  7G05G07G13G14G17G20G30               
  23283046.023 4 122353231.77314  95340215.01557  23283054.87947
  23100080.398 5 121391742.06815  94591001.03458  23100089.27348
  21718223.289 6 114130028.18816  88932525.18157  21718231.17647
  20519060.016 6 107828384.87516  84022156.56658  20519069.23448
  21789376.320 6 114503939.10416  89223852.25457  21789385.16847
  23814257.234 1 125144720.56811  97515433.86756  23814265.10546
  21505273.539 6 113010976.69516  88060507.80659  21505284.72349
 22  7  3 17  9 20.0000000  0  7G05G07G13G14G17G20G30               
  23284999.180 4 122363498.008 4  95348214.71946  23285008.69946
  23103079.180 5 121407502.097 5  94603281.56848  23103088.36348
  21716753.266 6 114122307.101 6  88926508.75347  21716761.85547
  20521142.766 6 107839329.361 6  84030684.74048  20521151.68448
  21787624.836 6 114494737.628 6  89216682.27947  21787634.19147
  23817415.125 3 125161317.960 3  97528366.79345  23817424.48845
  21507112.844 6 113020639.746 6  88068037.45349  21507123.94549
 22  7  3 17  9 25.0000000  0  7G05G07G13G14G17G20G30               
  23286957.070 4 122373783.641 4  95356229.45746  23286966.01646
  23106079.750 5 121423272.697 5  94615570.34648  23106089.89548
  21715287.000 6 114114601.542 6  88920504.42747  21715295.78547
  20523229.313 6 107850291.743 6  84039226.84848  20523237.62148
  21785877.141 6 114485553.097 6  89209525.50347  21785886.42647
  23820576.547 3 125177925.559 3  97541307.82445  23820584.62545
  21508953.906 6 113030315.003 6  88075576.61649  21508965.02749
 22  7  3 17  9 30.0000000  0  7G05G07G13G14G17G20G30               
  23288918.852 4 122384090.070 4  95364260.44246  23288927.58646
  23109083.867 5 121439055.137 5  94627868.32748  23109093.12548
  21713823.375 6 114106912.762 6  88914513.17647  21713832.25847
  20525318.547 6 107861273.304 6  84047783.90848  20525327.63748
  21784132.953 6 114476386.804 6  89202382.94047  21784142.49247
  23823737.859 3 125194544.653 3  97554257.72645  23823747.17245
  21510797.477 6 113040003.697 6  88083126.25249  21510808.68449
 22  7  3 17  9 35.0000000  0  7G05G07G13G14G17G20G30               
  23290883.227 4 122394417.734 4  95372307.96446  23290892.87146
  23112088.992 5 121454849.843 5  94640175.88248  23112099.24248
  21712364.117 6 114099241.317 6  88908535.42447  21712372.60947
  20527412.391 6 107872274.512 6  84056356.28748  20527421.00848
  21782392.148 6 114467239.263 6  89195254.99748  21782401.70348
  23826902.836 3 125211175.740 3  97567216.99345  23826911.97345
  21512643.758 6 113049706.373 6  88090686.77649  21512654.98849
 22  7  3 17  9 40.0000000  0  7G05G07G13G14G17G20G30               
  23292853.305 4 122404766.315 4  95380371.76946  23292862.04746
  23115097.164 5 121470656.635 5  94652492.85448  23115107.09848
  21710907.203 6 114091586.987 6  88902571.01747  21710916.17247
  20529509.047 6 107883295.135 6  84064943.78348  20529518.25448
  21780654.852 6 114458110.215 6  89188141.44747  21780664.39147
  23830069.633 3 125227818.487 3  97580185.36646  23830079.40646
  21514493.180 6 113059422.778 6  88098257.99949  21514504.69549
 22  7  3 17  9 45.0000000  0  7G05G07G13G14G17G20G30               
  23294825.461 4 122415135.919 4  95388451.98346  23294835.55146
  23118108.164 5 121486475.570 5  94664819.28448  23118117.64848
  21709454.102 6 114083949.800 6  88896619.95947  21709462.78147
  20531610.305 6 107894335.242 6  84073546.47148  20531618.99248
  21778920.781 6 114448999.863 6  89181042.48147  21778930.75047
  23833239.219 2 125244473.050 2  97593162.94145  23833248.32445
  21516344.805 6 113069153.011 6  88105839.99349  21516356.07849
 22  7  3 17  9 50.0000000  0  8G05G07G13G14G17G19G20G30            
  23296802.727 4 122425526.600 4  95396548.60246  23296812.59846
  23121120.336 5 121502306.680 5  94677155.19748  23121130.09048
  21708004.047 6 114076329.849 6  88890682.34447  21708012.64847
  20533715.234 6 107905394.795 6  84082164.29948  20533723.57848
  21777190.625 6 114439908.149 6  89173958.04047  21777200.44147
  22901055.133 5 120346042.99515  93776027.35556  22901064.14546
  23836409.984 3 125261139.419 3  97606149.69846  23836420.13346
  21518198.648 6 113078897.064 6  88113432.75649  21518210.15649
 22  7  3 17  9 55.0000000  0  8G05G07G13G14G17G19G20G30            
  23298784.563 4 122435937.813 4  95404661.21846  23298793.94546
  23124135.023 5 121518149.490 5  94689500.23248  23124144.85548
  21706557.281 6 114068726.689 6  88884757.80747  21706565.67647
  20535823.414 6 107916473.392 6  84090796.98248  20535832.25048
  21775464.297 6 114430834.662 6  89166887.79447  21775473.93447
  22898905.805 5 120334747.042 5  93767225.32747  22898914.52347
  23839583.898 3 125277817.042 3  97619145.22446  23839594.06346
  21520055.797 6 113088654.471 6  88121035.93449  21520066.55549
 22  7  3 17 10  0.0000000  0  8G05G07G13G14G17G19G20G30            
  23300769.867 4 122446369.113 4  95412789.49646  23300778.75446
  23127151.789 5 121534003.452 5  94701853.98348  23127162.07048
  21705113.906 6 114061139.788 6  88878845.94047  21705122.09447
  20537935.125 6 107927570.436 6  84099444.03048  20537943.83648
  21773740.992 6 114421778.878 6  89159831.34147  21773750.38347
  22896758.156 5 120323463.705 5  93758433.14246  22896767.08246
  23842760.023 3 125294505.397 3  97632149.15346  23842769.44946
  21521915.039 6 113098424.735 6  88128649.12449  21521925.96949
 22  7  3 17 10  5.0000000  0  8G05G07G13G14G17G19G20G30            
  23302758.414 4 122456820.549 4  95420933.45346  23302768.02746
  23130171.500 5 121549868.849 5  94714216.62448  23130181.17248
  21703672.898 6 114053569.346 6  88872946.89747  21703681.51647
  20540050.383 6 107938686.128 6  84108105.61548  20540059.03548
  21772021.742 6 114412741.009 6  89152788.85447  21772030.61347
  22894614.016 5 120312193.182 5  93749650.90846  22894622.53546
  23845938.148 4 125311204.750 4  97645161.57646  23845947.00846
  21523776.148 6 113108207.987 6  88136272.43549  21523787.68449
 22  7  3 17 10 10.0000000  0  8G05G07G13G14G17G19G20G30            
  23304751.469 4 122467291.603 4  95429092.71246  23304760.14846
  23133191.938 5 121565744.962 5  94726587.61548  23133202.17248
  21702234.938 6 114046014.763 6  88867060.21347  21702243.55547
  20542168.531 6 107949819.889 6  84116781.27348  20542177.84448
  21770304.969 6 114403720.400 6  89145759.81247  21770313.91047
  22892472.172 5 120300934.896 5  93740878.23946  22892479.94546
  23849116.844 4 125327914.413 4  97658182.10246  23849126.43846
  21525640.680 6 113118003.711 6  88143905.46649  21525651.57049
 22  7  3 17 10 15.0000000  0  8G05G07G13G14G17G19G20G30            
  23306747.789 4 122477782.683 4  95437267.56346  23306756.46146
  23136215.695 5 121581632.321 5  94738967.37648  23136225.32848
  21700800.578 6 114038476.432 6  88861186.19647  21700809.43847
  20544290.961 6 107960972.097 6  84125471.31248  20544299.70748
  21768592.117 6 114394717.617 6  89138744.66247  21768600.68447
  22890331.891 5 120289689.290 5  93732115.43946  22890339.83246
  23852299.961 4 125344634.807 4  97671210.93946  23852308.84046
  21527507.078 6 113127812.281 6  88151548.51249  21527518.02049
 22  7  3 17 10 20.0000000  0  8G05G07G13G14G17G19G20G30            
  23308746.750 4 122488292.423 4  95445456.96546  23308756.61746
  23139241.102 5 121597529.475 5  94751354.76448  23139250.35248
  21699369.172 6 114030953.063 6  88855323.82747  21699377.54347
  20546416.234 6 107972141.382 6  84134174.65648  20546425.23048
  21766881.820 6 114385731.199 6  89131742.27047  21766890.55147
  22888193.289 5 120278455.006 5  93723361.47647  22888202.36347
  23855482.633 4 125361364.569 4  97684247.11146  23855493.10246
  21529376.250 6 113137632.323 6  88159200.49149  21529386.55549
 22  7  3 17 10 25.0000000  0  8G05G07G13G14G17G19G20G30            
  23310750.531 4 122498820.896 4  95453660.94546  23310760.24246
  23142267.727 5 121613436.501 5  94763749.84148  23142277.02348
  21697940.039 6 114023444.752 6  88849473.20747  21697948.84447
  20548545.039 6 107983327.840 6  84142891.38348  20548553.95348
  21765174.859 6 114376761.252 6  89124752.70548  21765183.45748
  22886057.953 5 120267232.186 5  93714616.43246  22886066.69546
  23858667.914 4 125378103.733 4  97697290.62946  23858678.54346
  21531246.336 6 113147463.982 6  88166861.53149  21531257.72349
 22  7  3 17 10 30.0000000  0  8G05G07G13G14G17G19G20G30            
  23312757.961 4 122509368.311 4  95461879.67746  23312767.46546
  23145297.000 5 121629353.736 5  94776152.87148  23145306.40248
  21696514.789 6 114015951.742 6  88843634.49847  21696522.80147
  20550677.188 6 107994531.665 6  84151621.63948  20550686.04348
  21763470.914 6 114367808.106 6  89117776.21947  21763479.59847
  22883925.180 5 120256021.021 5  93705880.47446  22883933.72346
  23861854.719 4 125394852.562 4  97710341.60546  23861865.23446
  21533119.680 6 113157307.436 6  88174531.75649  21533130.91849
 22  7  3 17 10 35.0000000  0  8G05G07G13G14G17G19G20G30            
  23314768.273 4 122519933.956 4  95470112.63546  23314777.84846
  23148327.852 5 121645280.416 5  94788563.25748  23148336.87148
  21695091.203 6 114008473.323 6  88837807.16947  21695099.28547
  20552812.164 6 108005752.173 6  84160364.88948  20552821.07448
  21761769.703 6 114358870.981 6  89110812.23548  21761778.99248
  22881793.672 5 120244820.833 5  93697153.06646  22881801.85246
  23865043.453 4 125411610.286 4  97723399.57446  23865054.50446
  21534994.906 6 113167162.015 6  88182210.64849  21535005.98049
 22  7  3 17 10 40.0000000  0  8G05G07G13G14G17G19G20G30            
  23316782.922 4 122530517.608 4  95478359.61546  23316791.85546
  23151359.797 5 121661216.271 5  94800980.80848  23151369.62148
  21693670.859 6 114001009.225 6  88831990.98547  21693679.36747
  20554950.828 6 108016989.086 6  84169120.93948  20554959.55148
  21760072.430 6 114349949.681 6  89103860.57547  21760081.55547
  22879663.781 5 120233631.388 5  93688434.05146  22879672.67246
  23868234.859 4 125428376.675 4  97736464.26746  23868245.09846
  21536872.414 6 113177027.483 6  88189898.01949  21536883.23049
 22  7  3 17 10 45.0000000  0  8G05G07G13G14G17G19G20G30            
  23318800.156 5 122541118.965 5  95486620.40146  23318808.88346
  23154394.203 5 121677161.148 5  94813405.37348  23154403.67648
  21692253.141 6 113993559.355 6  88826185.90147  21692261.98447
  20557091.813 6 108028242.220 6  84177889.61848  20557100.67648
  21758377.961 6 114341044.070 6  89096921.13847  21758386.82447
  22877536.406 5 120222452.563 5  93679723.28746  22877545.16846
  23871427.109 4 125445151.592 4  97749535.64446  23871437.27046
  21538752.023 6 113186903.587 6  88197593.69049  21538763.07849
 22  7  3 17 10 50.0000000  0  8G05G07G13G14G17G19G20G30            
  23320820.797 5 122551738.191 5  95494895.09146  23320829.96146
  23157430.258 5 121693115.100 5  94825837.01548  23157439.86748
  21690838.492 6 113986123.687 6  88820391.86847  21690846.84847
  20559236.266 6 108039511.595 6  84186670.95548  20559245.06648
  21756685.625 6 114332154.166 6  89089993.95147  21756694.92247
  22875411.984 5 120211284.321 5  93671020.78247  22875420.19547
  23874620.930 4 125461934.931 4  97762613.54246  23874631.25846
  21540633.289 6 113196790.446 6  88205297.73449  21540644.24649
 22  7  3 17 10 55.0000000  0  8G05G07G13G14G17G19G20G30            
  23322845.102 5 122562374.867 5  95503183.41846  23322854.00446
  23160468.031 5 121709077.740 5  94838275.42748  23160477.43048
  21689426.445 6 113978701.952 6  88814608.71447  21689434.53547
  20561383.914 6 108050796.878 6  84195464.69048  20561392.59848
  21754996.766 6 114323279.634 6  89083078.73947  21755006.34447
  22873288.414 5 120200126.418 5  93662326.31646  22873296.79746
  23877815.430 4 125478726.447 4  97775697.84146  23877826.79346
  21542517.164 6 113206687.701 6  88213009.88549  21542527.93849
 22  7  3 17 11  0.0000000  0  8G05G07G13G14G17G19G20G30            
  23324872.070 4 122573028.797 4  95511485.16046  23324881.01246
  23163506.859 5 121725048.903 5  94850720.48448  23163516.60548
  21688016.430 6 113971293.994 6  88808836.27347  21688025.05947
  20563534.422 6 108062097.888 6  84204270.67448  20563543.45348
  21753311.445 6 114314420.349 6  89076175.40847  21753320.57447
  22871166.734 5 120188978.695 5  93653639.81747  22871175.71147
  23881014.195 4 125495525.916 4  97788788.32046  23881023.50846
  21544401.969 6 113216595.162 6  88220729.97749  21544412.89549
 22  7  3 17 11  5.0000000  0  8G05G07G13G14G17G19G20G30            
  23326902.828 4 122583699.756 4  95519800.17146  23326911.82046
  23166547.992 5 121741028.421 5  94863172.04548  23166557.34448
  21686609.281 6 113963899.572 6  88803074.38247  21686617.51647
  20565687.813 6 108073414.352 6  84213088.69848  20565696.96148
  21751627.789 6 114305576.038 6  89069283.74847  21751637.61747
  22869046.773 5 120177840.909 5  93644961.04547  22869055.85247
  23884211.367 3 125512333.053 3  97801884.79746  23884221.73446
  21546289.523 6 113226512.616 6  88228457.86549  21546300.50049
 22  7  3 17 11 10.0000000  0  8G05G07G13G14G17G19G20G30            
  23328937.148 4 122594388.097 4  95528128.74246  23328945.90246
  23169590.484 5 121757016.599 5  94875630.35448  23169599.83648
  21685205.148 6 113956519.006 6  88797323.30047  21685213.03147
  20567843.945 6 108084746.632 6  84221919.05348  20567853.22748
  21749948.281 6 114296747.130 6  89062404.08248  21749957.28548
  22866930.016 5 120166713.404 5  93636290.27947  22866938.41847
  23887411.352 4 125529148.273 4  97814987.54846  23887421.78146
  21548178.289 6 113236440.389 6  88236193.79149  21548189.28949
 22  7  3 17 11 15.0000000  0  8G05G07G13G14G17G19G20G30            
  23330974.469 4 122605093.563 4  95536470.66546  23330983.32046
  23172634.125 5 121773013.290 5  94888095.30348  23172643.78148
  21683803.000 6 113949152.199 6  88791582.93447  21683811.45747
  20570003.617 6 108096094.589 6  84230761.61848  20570012.39548
  21748271.383 6 114287933.483 6  89055536.32148  21748280.64148
  22864813.805 5 120155596.073 5  93627627.46147  22864822.52047
  23890612.547 4 125545971.398 4  97828096.44446  23890622.85246
  21550069.477 6 113246378.368 6  88243937.66749  21550080.53149
 22  7  3 17 11 20.0000000  0  8G05G07G13G14G17G19G20G30            
  23333014.711 5 122615816.106 5  95544825.86146  23333023.72346
  23175679.617 5 121789018.342 5  94900566.77048  23175689.63748
  21682403.523 6 113941798.979 6  88785853.16247  21682412.02747
  20572166.250 6 108107458.013 6  84239616.23248  20572175.18048
  21746596.563 6 114279134.869 6  89048680.26248  21746606.26248
  22862700.641 5 120144488.777 5  93618972.44147  22862709.08247
  23893816.078 4 125562802.179 4  97841211.34446  23893825.94946
  21551962.781 6 113256326.398 6  88251689.38049  21551973.17249
 22  7  3 17 11 25.0000000  0  8G05G07G13G14G17G19G20G30            
  23335057.469 5 122626555.170 5  95553193.94246  23335067.01646
  23178726.758 5 121805031.253 5  94913044.36248  23178737.08648
  21681006.813 6 113934458.856 6  88780133.58247  21681014.72747
  20574331.633 6 108118836.457 6  84248482.55848  20574340.48448
  21744925.648 6 114270350.934 6  89041835.63748  21744934.65248
  22860588.258 5 120133391.055 5  93610324.89947  22860597.15647
  23897020.117 3 125579640.247 3  97854331.89046  23897029.89846
  21553857.531 6 113266283.958 6  88259448.50849  21553867.96149
 22  7  3 17 11 30.0000000  0  8G05G07G13G14G17G19G20G30            
  23337105.195 5 122637311.363 5  95561575.37246  23337113.52046
  23181776.586 5 121821052.616 5  94925528.54348  23181785.78948
  21679612.414 6 113927132.477 6  88774424.72647  21679621.27747
  20576499.492 6 108130230.436 6  84257360.98348  20576508.87148
  21743256.641 6 114261582.206 6  89035002.86348  21743266.03148
  22858478.336 5 120122303.429 5  93601685.21847  22858487.34847
  23900225.695 4 125596486.081 4  97867458.51246  23900235.98446
  21555754.164 6 113276251.657 6  88267215.54749  21555764.71149
 22  7  3 17 11 35.0000000  0  8G05G07G13G14G17G19G20G30            
  23339154.250 5 122648083.910 5  95569969.54946  23339163.68446
  23184825.492 5 121837081.776 5  94938018.78848  23184835.50848
  21678220.633 6 113919819.130 6  88768726.00747  21678229.17247
  20578670.727 6 108141639.294 6  84266250.99548  20578679.78548
  21741590.703 6 114252827.991 6  89028181.40748  21741600.23448
  22856370.625 5 120111225.218 5  93593052.85647  22856379.75047
  23903432.883 3 125613339.027 3  97880590.64446  23903442.97346
  21557652.805 6 113286228.782 6  88274989.92549  21557663.58649
 22  7  3 17 11 40.0000000  0  8G05G07G13G14G17G19G20G30            
  23341208.234 5 122658872.886 5  95578376.53446  23341216.50846
  23187877.625 5 121853118.615 5  94950515.02648  23187887.25848
  21676831.422 6 113912518.855 6  88763037.48847  21676839.92647
  20580844.375 6 108153062.985 6  84275152.58448  20580853.49248
  21739927.297 6 114244088.318 6  89021371.27448  21739937.12548
  22854264.438 5 120100156.511 5  93584427.92347  22854273.01647
  23906641.625 3 125630199.004 3  97893728.28146  23906651.19546
  21559553.289 6 113296215.355 6  88282771.68049  21559563.97749
 22  7  3 17 11 45.0000000  0  8G05G07G13G14G17G19G20G30            
  23343262.984 4 122669678.194 4  95586796.23746  23343272.57846
  23190931.375 5 121869163.199 5  94963017.28848  23190940.37148
  21675445.555 6 113905231.531 6  88757359.04647  21675453.34047
  20583021.180 6 108164501.466 6  84284065.68548  20583030.23848
  21738267.063 6 114235363.182 6  89014572.47548  21738276.52348
  22852159.875 5 120089097.273 5  93575810.35247  22852168.34447
  23909850.273 3 125647065.927 3  97906871.32346  23909861.16446
  21561455.445 6 113306211.308 6  88290560.72949  21561466.08649
 22  7  3 17 11 50.0000000  0  8G05G07G13G14G17G19G20G30            
  23345323.258 4 122680500.082 4  95595228.88846  23345332.21146
  23193985.461 5 121885215.823 5  94975525.81748  23193995.39148
  21674060.805 6 113897957.518 6  88751690.99347  21674069.35247
  20585200.406 6 108175954.982 6  84292990.50548  20585209.71548
  21736609.352 6 114226652.794 6  89007785.15947  21736619.37147
  22850057.523 5 120078047.720 5  93567200.33847  22850065.67647
  23913062.039 3 125663940.101 3  97920020.01646  23913072.02046
  21563359.336 6 113316216.901 6  88298357.29549  21563370.37949
 22  7  3 17 11 55.0000000  0  8G05G07G13G14G17G19G20G30            
  23347385.547 4 122691338.042 4  95603674.02846  23347394.62946
  23197041.703 5 121901275.846 5  94988040.11348  23197051.46948
  21672678.891 6 113890696.232 6  88746032.84647  21672687.16847
  20587382.461 6 108187423.005 6  84301926.62848  20587391.90648
  21734954.789 6 114217956.719 6  89001008.99948  21734964.59048
  22847955.633 5 120067007.375 5  93558597.48447  22847964.99247
  23916274.461 3 125680820.949 3  97933173.88846  23916284.17246
  21565265.219 6 113326231.631 6  88306160.97949  21565275.82449
 22  7  3 17 12  0.0000000  0  8G05G07G13G14G17G19G20G30            
  23349451.297 4 122702191.699 4  95612131.43546  23349460.41846
  23200100.133 5 121917343.086 5  95000560.02548  23200108.71548
  21671299.906 6 113883447.411 6  88740384.42747  21671307.96147
  20589567.656 6 108198905.221 6  84310873.81448  20589577.02748
  21733302.414 6 114209274.626 6  88994243.72948  21733312.02348
  22845857.289 5 120055975.916 5  93550001.57347  22845865.53547
  23919487.664 3 125697708.213 3  97946332.78646  23919497.82846
  21567172.289 6 113336255.203 6  88313971.55249  21567183.47749
 22  7  3 17 12  5.0000000  0  8G05G07G13G14G17G19G20G30            
  23351519.266 4 122713061.275 4  95620601.20946  23351528.71546
  23203158.617 5 121933417.655 5  95013085.65648  23203167.68848
  21669922.328 6 113876211.302 6  88734745.90347  21669930.82047
  20591755.117 6 108210401.816 6  84319832.20048  20591764.47348
  21731653.250 6 114200606.701 6  88987489.50448  21731662.64148
  22843759.820 5 120044953.621 5  93541412.79147  22843767.68847
  23922702.547 3 125714602.078 3  97959496.82546  23922712.51246
  21569081.883 6 113346287.797 6  88321789.16449  21569092.41849
 22  7  3 17 12 10.0000000  0  8G05G07G13G14G17G19G20G30            
  23353591.461 4 122723946.624 4  95629083.28446  23353600.00846
  23206218.578 5 121949499.433 5  95025616.90148  23206227.91448
  21668547.758 6 113868987.730 6  88729117.14747  21668556.15247
  20593945.539 6 108221912.635 6  84328801.67948  20593955.03148
  21730006.391 6 114191952.876 6  88980746.27147  21730015.91047
  22841663.859 5 120033940.305 5  93532831.00147  22841672.32447
  23925918.492 3 125731502.309 3  97972665.81146  23925928.56346
  21570992.289 6 113356329.251 6  88329613.67849  21571003.24649
 22  7  3 17 12 15.0000000  0  8G05G07G13G14G17G19G20G30            
  23355665.344 4 122734848.296 4  95637578.10446  23355674.72346
  23209281.023 5 121965588.914 5  95038154.15548  23209289.95748
  21667176.242 6 113861777.257 6  88723498.60647  21667184.12547
  20596138.867 6 108233438.206 6  84337782.64648  20596148.28148
  21728362.969 6 114183313.680 6  88974014.42847  21728372.05547
  22839569.680 5 120022936.530 5  93524256.64647  22839578.33247
  23929135.820 4 125748409.461 4  97985840.21246  23929146.05946
  21572905.250 6 113366380.129 6  88337445.53049  21572916.02349
 22  7  3 17 12 20.0000000  0  8G05G07G13G14G17G19G20G30            
  23357743.000 5 122745765.898 5  95646085.32746  23357751.87946
  23212343.953 5 121981685.800 5  95050697.19448  23212353.14548
  21665806.445 6 113854579.635 6  88717890.06947  21665814.86747
  20598334.891 6 108244978.216 6  84346774.86548  20598344.05548
  21726721.398 6 114174688.823 6  88967293.76448  21726730.86748
  22837477.555 5 120011941.991 5  93515689.49047  22837485.68447
  23932353.734 4 125765323.290 4  97999019.79046  23932364.37546
  21574818.875 6 113376440.149 6  88345284.50749  21574830.24249
 22  7  3 17 12 25.0000000  0  8G05G07G13G14G17G19G20G30            
  23359823.117 4 122756699.210 4  95654604.76846  23359832.96546
  23215407.609 5 121997789.918 5  95063245.84848  23215417.57048
  21664439.188 6 113847394.630 6  88712291.36447  21664447.30547
  20600533.789 6 108256532.434 6  84355778.14748  20600543.03148
  21725082.820 6 114166078.094 6  88960584.09948  21725092.00848
  22835387.211 5 120000956.485 5  93507129.37447  22835394.88347
  23935573.594 4 125782243.448 4  98012204.32946  23935584.07446
  21576735.711 6 113386509.043 6  88353130.39549  21576746.30549
 22  7  3 17 12 30.0000000  0  8G05G07G13G14G17G19G20G30            
  23361906.922 4 122767647.915 4  95663136.21746  23361916.54746
  23218473.406 5 122013900.886 5  95075799.83948  23218483.74248
  21663074.297 6 113840221.870 6  88706702.20547  21663082.64147
  20602735.148 6 108268100.487 6  84364792.22648  20602744.33648
  21723447.070 6 114157481.142 6  88953885.18648  21723456.34448
  22833297.813 5 119989979.677 5  93498576.03547  22833306.48447
  23938796.570 4 125799169.626 4  98025393.54046  23938805.05946
  21578652.969 6 113396586.489 6  88360982.95249  21578664.07449
 22  7  3 17 12 35.0000000  0  8G05G07G13G14G17G19G20G30            
  23363992.516 4 122778612.199 4  95671679.79846  23364002.87146
  23221541.109 5 122030018.945 5  95088359.35648  23221550.93448
  21661711.336 6 113833061.569 6  88701122.75047  21661719.83247
  20604939.078 6 108279682.563 6  84373817.21948  20604948.29348
  21721813.648 6 114148898.180 6  88947197.15748  21721822.98048
  22831211.227 5 119979011.812 5  93490029.66447  22831219.45747
  23942017.883 4 125816102.037 4  98038587.59446  23942027.34446
  21580572.594 6 113406672.678 6  88368842.32049  21580583.61749
 22  7  3 17 12 40.0000000  0  8G05G07G13G14G17G19G20G30            
  23366082.367 4 122789592.192 4  95680235.62246  23366092.50446
  23224608.969 5 122046144.214 5  95100924.50848  23224619.41448
  21660351.547 6 113825913.957 6  88695553.18947  21660359.77747
  20607145.430 6 108291278.877 6  84382853.31348  20607154.68048
  21720183.117 6 114140329.421 6  88940520.21548  21720192.46148
  22829125.430 5 119968053.036 5  93481490.37947  22829134.16847
  23945240.633 4 125833040.802 4  98051786.60246  23945250.53146
  21582493.414 6 113416767.790 6  88376708.63949  21582504.43449
 22  7  3 17 12 45.0000000  0  8G05G07G13G14G17G19G20G30            
  23368175.406 4 122800587.530 4  95688803.40546  23368185.02046
  23227678.977 5 122062276.268 5  95113494.94248  23227689.19948
  21658993.492 6 113818778.566 6  88689993.15147  21659002.32847
  20609355.484 6 108302888.863 6  84391900.06248  20609364.07448
  21718555.117 6 114131774.451 6  88933853.99348  21718564.57048
  22827042.117 5 119957102.999 5  93472957.90647  22827050.23447
  23948465.633 4 125849985.439 4  98064990.20346  23948475.13746
  21584416.305 6 113426871.367 6  88384581.56049  21584427.23849
 22  7  3 17 12 50.0000000  0  8G05G07G13G14G17G19G20G30            
  23370270.055 5 122811597.860 5  95697382.86946  23370279.82846
  23230750.664 5 122078414.971 5  95126070.55248  23230760.44548
  21657637.594 6 113811655.196 6  88684442.47747  21657646.30547
  20611567.414 6 108314512.445 6  84400957.40548  20611575.88748
  21716929.023 6 114123233.034 6  88927198.34548  21716938.93848
  22824959.336 5 119946161.425 5  93464432.02247  22824968.15647
  23951691.273 4 125866935.780 4  98078198.22446  23951700.99646
  21586340.172 6 113436983.244 6  88392460.93949  21586351.22749
 22  7  3 17 12 55.0000000  0  8G05G07G13G14G17G19G20G30            
  23372369.242 4 122822623.479 4  95705974.26546  23372378.23846
  23233822.672 5 122094560.347 5  95138651.35848  23233832.96948
  21656284.672 6 113804544.002 6  88678901.29547  21656293.11747
  20613781.320 6 108326149.663 6  84410025.37348  20613790.32448
  21715306.859 6 114114705.358 6  88920553.41248  21715316.27748
  22822879.313 5 119935228.507 5  93455912.88247  22822887.40247
  23954917.000 4 125883891.942 4  98091410.82046  23954927.05946
  21588266.133 6 113447103.540 6  88400346.88349  21588276.93849
 22  7  3 17 13  0.0000000  0  8G05G07G13G14G17G19G20G30            
  23374470.086 4 122833664.356 4  95714577.53346  23374479.12946
  23236896.508 5 122110712.576 5  95151237.50348  23236906.03148
  21654934.336 6 113797445.170 6  88673369.73947  21654942.37547
  20615998.781 6 108337800.649 6  84419104.06348  20616007.44148
  21713686.461 6 114106191.523 6  88913919.25148  21713696.02348
  22820800.945 5 119924304.404 5  93447400.61547  22820808.43847
  23958145.859 4 125900853.998 4  98104627.98946  23958155.23046
  21590193.727 6 113457232.353 6  88408239.46649  21590204.49249
 22  7  3 17 13  5.0000000  0  8G05G07G13G14G17G19G20G30            
  23376573.117 4 122844719.866 4  95723192.21047  23376582.92247
  23239971.438 5 122126870.953 5  95163828.43148  23239981.22748
  21653585.344 6 113790357.944 6  88667847.22947  21653593.93447
  20618218.391 6 108349464.688 6  84428192.93848  20618226.89548
  21712068.945 6 114097690.818 6  88907295.32648  21712078.21148
  22818723.172 5 119913388.375 5  93438894.63246  22818731.01646
  23961374.609 4 125917821.330 4  98117849.24546  23961383.88746
  21592122.672 6 113467369.047 6  88416138.18849  21592133.84449
 22  7  3 17 13 10.0000000  0  8G05G07G13G14G17G19G20G30            
  23378680.578 4 122855790.446 4  95731818.62947  23378689.85947
  23243047.156 5 122143035.993 5  95176424.56348  23243057.50448
  21652238.992 6 113783282.827 6  88662334.15847  21652247.74647
  20620440.500 6 108361142.348 6  84437292.41348  20620449.15648
  21710453.922 6 114089203.844 6  88900682.11047  21710463.58247
  22816647.336 5 119902480.996 5  93430395.39447  22816655.72347
  23964603.523 4 125934794.313 4  98131074.93846  23964614.14546
  21594053.109 6 113477514.122 6  88424043.43749  21594064.24249
 22  7  3 17 13 15.0000000  0  8G05G07G13G14G17G19G20G30            
  23380790.414 4 122866875.932 4  95740456.64846  23380799.37546
  23246124.914 5 122159207.554 5  95189025.77948  23246134.07848
  21650894.875 6 113776219.734 6  88656830.45347  21650903.52347
  20622665.359 6 108372833.418 6  84446402.34348  20622673.95748
  21708841.234 6 114080730.398 6  88894079.42148  21708850.84048
  22814573.078 5 119891582.125 5  93421902.79247  22814581.85547
  23967835.133 4 125951772.832 4  98144304.91146  23967844.65646
  21595985.242 6 113487667.388 6  88431955.07649  21595996.18449
 22  7  3 17 13 20.0000000  0  8G05G07G13G14G17G19G20G30            
  23382902.141 5 122877976.240 5  95749106.22747  23382911.57447
  23249203.602 5 122175385.442 5  95201631.92248  23249213.31648
  21649552.742 6 113769168.502 6  88651335.99347  21649561.74247
  20624892.438 6 108384537.684 6  84455522.56348  20624900.75848
  21707231.758 6 114072270.432 6  88887487.24348  21707240.68048
  22812500.906 5 119880691.545 5  93413416.65747  22812509.77047
  23971066.953 3 125968756.732 3  98157539.14646  23971077.03546
  21597918.578 6 113497828.709 6  88439872.98549  21597929.97349
 22  7  3 17 13 25.0000000  0  8G05G07G13G14G17G19G20G30            
  23385017.859 5 122889091.439 5  95757767.41046  23385026.55546
  23252283.633 5 122191569.818 5  95214243.12548  23252292.79748
  21648213.781 6 113762129.267 6  88645850.87147  21648221.94947
  20627122.500 6 108396255.300 6  84464653.17548  20627131.00048
  21705624.547 6 114063823.997 6  88880905.61048  21705633.52748
  22810429.813 5 119869809.434 5  93404937.11847  22810438.83247
  23974299.828 4 125985746.088 4  98170777.57446  23974309.82446
  21599854.203 6 113507998.192 6  88447797.25449  21599865.06649
 22  7  3 17 13 30.0000000  0  8G05G07G13G14G17G19G20G30            
  23387135.484 5 122900221.721 5  95766440.35447  23387144.91847
  23255364.172 5 122207760.940 5  95226859.57548  23255373.50048
  21646876.125 6 113755102.268 6  88640375.29347  21646884.74247
  20629354.797 6 108407986.506 6  84473794.38248  20629363.18448
  21704019.875 6 114055391.382 6  88874334.74848  21704029.06648
  22808361.156 5 119858936.062 5  93396464.38047  22808369.20747
  23977532.852 3 126002741.109 3  98184020.45246  23977543.97746
  21601790.734 6 113518176.088 6  88455728.08049  21601802.05949
 22  7  3 17 13 35.0000000  0  8G05G07G13G14G17G19G20G30            
  23389256.281 5 122911367.099 5  95775125.04347  23389265.99247
  23258446.258 5 122223958.848 5  95239481.31148  23258456.19948
  21645541.406 6 113748087.587 6  88634909.31647  21645549.93047
  20631589.570 6 108419731.325 6  84482946.19148  20631598.37948
  21702417.906 6 114046972.648 6  88867774.69348  21702426.96548
  22806294.211 5 119848071.481 5  93387998.48547  22806301.86747
  23980768.813 3 126019742.005 3  98197267.86246  23980779.14546
  21603729.586 6 113528362.439 6  88463665.49149  21603740.26249
 22  7  3 17 13 40.0000000  0  8G05G07G13G14G17G19G20G30            
  23391379.844 4 122922527.021 4  95783821.08847  23391389.57047
  23261530.391 5 122240162.960 5  95252107.88248  23261539.60248
  21644209.148 6 113741084.682 6  88629452.51547  21644217.31347
  20633827.180 6 108431489.182 6  84492108.17048  20633835.93848
  21700818.477 6 114038567.237 6  88861225.03048  21700827.54748
  22804227.289 5 119837215.139 5  93379539.02347  22804236.20747
  23984004.641 3 126036747.991 3  98210519.28646  23984015.69146
  21605669.109 6 113538556.700 6  88471609.07649  21605680.27049
 22  7  3 17 13 45.0000000  0  8G05G07G13G14G17G19G20G30            
  23393506.727 5 122933701.700 5  95792528.61747  23393516.10947
  23264614.836 5 122256373.420 5  95264739.40048  23264624.44548
  21642878.656 6 113734093.724 6  88624005.01547  21642886.44947
  20636066.609 6 108443260.256 6  84501280.43248  20636075.35248
  21699221.422 6 114030175.330 6  88854685.87848  21699230.31648
  22802163.656 5 119826367.247 5  93371086.15547  22802172.22347
  23987242.258 3 126053759.280 3  98223774.84046  23987252.25046
  21607610.773 6 113548759.049 6  88479558.95949  21607621.77749
 22  7  3 17 13 50.0000000  0  8G05G07G13G14G17G19G20G30            
  23395636.273 5 122944891.136 5  95801247.63947  23395645.40247
  23267700.891 5 122272590.372 5  95277375.98548  23267710.51648
  21641550.484 6 113727114.814 6  88618566.90347  21641559.01247
  20638309.305 6 108455044.638 6  84510463.07148  20638318.19548
  21697626.313 6 114021797.051 6  88848157.35248  21697636.08248
  22800101.188 5 119815527.872 5  93362639.90947  22800109.93847
  23990480.430 2 126070775.968 2  98237034.52646  23990490.59446
  21609553.305 6 113558969.602 6  88487515.22949  21609564.49649
 22  7  3 17 13 55.0000000  0  8G05G07G13G14G17G19G20G30            
  23397768.875 5 122956095.327 5  95809978.17247  23397777.60947
  23270787.648 5 122288813.771 5  95290017.57748  23270797.68848
  21640224.992 6 113720147.953 6  88613138.19547  21640233.05147
  20640554.547 6 108466842.251 6  84519656.02248  20640563.42648
  21696035.188 6 114013432.397 6  88841639.44048  21696044.25848
  22798040.164 5 119804697.096 5  93354200.37747  22798048.40647
  23993719.328 2 126087798.034 2  98250298.49546  23993729.76246
  21611498.445 6 113569188.294 6  88495477.83849  21611508.94949
 22  7  3 17 14  0.0000000  0  8G05G07G13G14G17G19G20G30            
  23399903.258 5 122967314.097 5  95818720.05647  23399912.29747
  23273876.797 5 122305043.381 5  95302664.02648  23273886.08648
  21638900.820 6 113713192.948 6  88607718.70547  21638909.37547
  20642801.883 6 108478652.896 6  84528859.12148  20642810.80148
  21694446.008 6 114005081.169 6  88835131.99447  21694455.12147
  22795980.750 5 119793874.539 5  93345767.23647  22795989.17247
  23996958.875 1 126104825.225 1  98263566.40346  23996970.44946
  21613444.125 6 113579414.891 6  88503446.62649  21613454.99249
 22  7  3 17 14  5.0000000  0  8G05G07G13G14G17G19G20G30            
  23402040.695 5 122978547.196 5  95827473.09347  23402049.85947
  23276965.406 5 122321279.026 5  95315315.16848  23276976.02348
  21637579.516 6 113706249.549 6  88602308.27447  21637588.29747
  20645051.906 6 108490476.340 6  84538072.19748  20645060.78948
  21692859.258 6 113996743.110 6  88828634.81347  21692868.33647
  22793922.063 5 119783060.134 5  93337340.46847  22793931.60547
  24000200.773 2 126121857.253 2  98276838.13646  24000211.65646
  21615391.211 6 113589649.218 6  88511421.41349  21615402.66049
 22  7  3 17 14 10.0000000  0  8G05G07G13G14G17G19G20G30            
  23404181.070 5 122989794.653 5  95836237.35447  23404190.46147
  23280057.148 5 122337520.733 5  95327971.03548  23280066.74248
  21636261.305 6 113699317.855 6  88596906.96247  21636269.18847
  20647304.102 6 108502312.636 6  84547295.29348  20647313.02348
  21691274.734 6 113988418.334 6  88822147.97347  21691284.31347
  22791865.867 5 119772253.923 5  93328920.05247  22791875.15247
  24003442.820 1 126138894.269 1  98290113.68446  24003453.58646
  21617340.688 6 113599891.322 6  88519402.28249  21617351.74649
 22  7  3 17 14 15.0000000  0  8G05G07G13G14G17G19G20G30            
  23406324.305 5 123001056.658 5  95845012.92247  23406333.71947
  23283148.883 5 122353768.744 5  95340631.81548  23283158.82848
  21634943.891 6 113692398.066 6  88591514.92647  21634952.15247
  20649559.242 6 108514161.993 6  84556528.56048  20649568.10548
  21689693.906 6 113980107.066 6  88815671.66747  21689702.54347
  22789811.203 6 119761456.115 6  93320506.19547  22789820.21947
  24006685.438 1 126155936.394 1  98303393.26046  24006696.29346
  21619291.188 6 113610141.431 6  88527389.37649  21619302.55549
 22  7  3 17 14 20.0000000  0  8G05G07G13G14G17G19G20G30            
  23408469.641 5 123012333.191 5  95853799.81847  23408479.78147
  23286241.695 5 122370022.960 5  95353297.45348  23286252.26248
  21633629.461 6 113685490.163 6  88586132.14447  21633637.78947
  20651816.211 6 108526024.345 6  84565771.95148  20651825.40248
  21688114.773 6 113971809.233 6  88809205.82347  21688123.37147
  22787758.203 6 119750666.706 6  93312098.89747  22787767.27047
  24009929.969 1 126172983.744 1  98316676.88045  24009940.34445
  21621243.016 6 113620399.503 6  88535382.68449  21621254.61349
 22  7  3 17 14 25.0000000  0  8G05G07G13G14G17G19G20G30            
  23410618.297 5 123023624.052 5  95862597.88747  23410628.50447
  23289336.625 5 122386283.268 5  95365967.82648  23289346.18848
  21632317.305 6 113678594.002 6  88580758.52147  21632325.55547
  20654076.273 6 108537899.526 6  84575025.34948  20654085.09448
  21686538.336 6 113963524.766 6  88802750.40247  21686546.98047
  22785706.289 5 119739885.555 5  93303698.03747  22785715.62947
  24013173.961 1 126190035.791 1  98329964.17746  24013184.85246
  21623196.969 6 113630665.339 6  88543382.03349  21623208.21149
 22  7  3 17 14 30.0000000  0  8G05G07G13G14G17G19G20G30            
  23412769.313 5 123034929.173 5  95871407.06147  23412779.78147
  23292431.492 5 122402549.559 5  95378642.85348  23292441.52348
  21631006.742 6 113671709.546 6  88575394.00847  21631015.64547
  20656338.367 6 108549787.455 6  84584288.66448  20656347.43448
  21684963.953 6 113955253.575 6  88796305.32247  21684973.41047
  22783656.391 5 119729112.569 5  93295303.52047  22783665.58647
  24016419.938 2 126207092.772 2  98343255.31946  24016431.02346
  21625151.758 6 113640938.916 6  88551387.41049  21625163.27049
 22  7  3 17 14 35.0000000  0  8G05G07G13G14G17G19G20G30            
  23414923.641 5 123046248.218 5  95880227.06347  23414933.79347
  23295528.344 5 122418821.560 5  95391322.33048  23295537.62548
  21629699.391 6 113664836.441 6  88570038.35247  21629707.29347
  20658603.063 6 108561687.827 6  84593561.68748  20658611.91848
  21683392.648 6 113946995.306 6  88789870.31148  21683401.71948
  22781607.570 5 119718347.505 5  93286915.18747  22781617.00847
  24019667.180 2 126224154.257 2  98356549.94546  24019677.43446
  21627108.344 6 113651219.898 6  88559398.56849  21627119.16049
 22  7  3 17 14 40.0000000  0  8G05G07G13G14G17G19G20G30            
  23417079.625 5 123057581.313 5  95889058.03747  23417089.84447
  23298625.297 5 122435099.461 5  95404006.41248  23298635.39848
  21628393.297 6 113657974.954 6  88564691.74147  21628401.77747
  20660870.117 6 108573600.797 6  84602844.52148  20660878.64548
  21681823.570 6 113938750.241 6  88783445.59248  21681832.29748
  22779560.797 6 119707590.533 6  93278533.15147  22779569.44947
  24022913.977 1 126241220.449 1  98369848.27646  24022924.86346
  21629065.984 6 113661508.494 6  88567415.64849  21629077.64849
 22  7  3 17 14 45.0000000  0  8G05G07G13G14G17G19G20G30            
  23419239.953 5 123068928.667 5  95897900.12847  23419249.19547
  23301724.313 5 122451383.360 5  95416695.16148  23301733.66448
  21627090.070 6 113651125.120 6  88559354.20847  21627098.08247
  20663139.211 6 108585526.441 6  84612137.23548  20663148.25448
  21680257.422 6 113930518.429 6  88777031.19448  21680266.27048
  22777515.398 6 119696841.750 6  93270157.48847  22777524.34047
  24026162.484 1 126258291.406 1  98383150.29646  24026173.33246
  21631025.234 6 113671804.774 6  88575438.72249  21631036.83249
 22  7  3 17 14 50.0000000  0  8G05G07G13G14G17G19G20G30            
  23421401.391 5 123080289.977 5  95906753.07046  23421411.27746
  23304824.094 5 122467673.060 5  95429388.42648  23304833.79748
  21625788.867 6 113644286.790 6  88554025.65147  21625796.81647
  20665411.297 6 108597464.579 6  84621439.67348  20665420.26648
  21678692.961 6 113922299.750 6  88770627.03348  21678702.42248
  22775471.719 6 119686100.991 6  93261788.10247  22775480.76647
  24029412.172 2 126275366.980 2  98396455.93446  24029423.01246
  21632986.094 6 113682108.562 6  88583467.64949  21632997.24249
 22  7  3 17 14 55.0000000  0  8G05G07G13G14G17G19G20G30            
  23423566.391 5 123091665.461 5  95915617.09246  23423575.81346
  23307924.703 6 122483968.657 6  95442086.28448  23307934.97348
  21624489.742 6 113637460.084 6  88548706.14147  21624498.03947
  20667685.141 6 108609415.317 6  84630751.93848  20667694.00048
  21677131.391 6 113914094.312 6  88764233.17748  21677141.12548
  22773429.031 5 119675368.373 5  93253425.04147  22773438.02347
  24032661.664 2 126292447.146 2  98409765.14646  24032672.86346
  21634947.859 6 113692419.966 6  88591502.50849  21634959.39549
 22  7  3 17 15  0.0000000  0  8G05G07G13G14G17G19G20G30            
  23425733.023 4 123103054.400 4  95924491.55846  23425742.92646
  23311026.703 6 122500269.626 6  95454788.33348  23311036.69548
  21623192.805 6 113630644.507 6  88543395.30247  21623201.06647
  20669961.836 6 108621378.095 6  84640073.58348  20669970.56348
  21675572.789 6 113905901.545 6  88757849.20648  21675581.96148
  22771388.086 5 119664643.372 5  93245067.92847  22771397.05547
  24035913.758 2 126309531.491 2  98423077.60945  24035923.77045
  21636911.570 6 113702738.492 6  88599542.90249  21636922.82849
 22  7  3 17 15  5.0000000  0  8G05G07G13G14G17G19G20G30            
  23427903.133 4 123114457.279 4  95933376.92046  23427912.82446
  23314129.852 5 122516576.458 5  95467494.94548  23314139.77348
  21621898.094 6 113623840.472 6  88538093.46247  21621906.30947
  20672240.211 6 108633353.389 6  84649404.98048  20672249.71148
  21674016.234 6 113897722.013 6  88751475.54248  21674025.29748
  22769349.023 5 119653926.517 5  93236717.14647  22769357.76647
  24039165.602 3 126326620.363 3  98436393.52845  24039176.10545
  21638876.781 6 113713064.574 6  88607589.21549  21638888.18449
 22  7  3 17 15 10.0000000  0  8G05G07G13G14G17G19G20G30            
  23430075.133 4 123125874.148 4  95942273.13246  23430085.03146
  23317233.906 5 122532889.021 5  95480206.02848  23317243.92248
  21620605.180 6 113617047.917 6  88532800.55647  21620614.07447
  20674521.719 6 108645341.036 6  84658745.99748  20674530.76648
  21672462.094 6 113889555.526 6  88745112.05448  21672471.46148
  22767311.875 5 119643217.616 5  93228372.56947  22767319.65647
  24042417.680 2 126343713.590 2  98449712.95345  24042428.63345
  21640843.148 6 113723398.033 6  88615641.25549  21640854.41849
 22  7  3 17 15 15.0000000  0  8G05G07G13G14G17G19G20G30            
  23432250.008 4 123137304.558 4  95951179.95246  23432260.57046
  23320339.117 5 122549207.178 5  95492921.46248  23320349.05548
  21619314.586 6 113610266.637 6  88527516.45147  21619322.94547
  20676804.477 6 108657340.844 6  84668096.50648  20676814.48448
  21670910.828 6 113881401.980 6  88738758.64647  21670920.02747
  22765274.820 5 119632516.562 5  93220034.11247  22765283.13747
  24045671.813 2 126360811.033 2  98463035.58045  24045681.84045
  21642810.891 6 113733738.769 6  88623698.97149  21642822.16849
 22  7  3 17 15 20.0000000  0  8G05G07G13G14G17G19G20G30            
  23434428.969 4 123148748.740 4  95960097.48746  23434438.49246
  23323445.906 5 122565530.834 5  95505641.20748  23323455.59448
  21618026.234 6 113603496.739 6  88522241.20347  21618034.90247
  20679091.070 6 108669352.847 6  84677456.50648  20679100.20748
  21669361.328 6 113873261.341 6  88732415.28448  21669371.02748
  22763239.477 5 119621823.367 5  93211701.76847  22763248.57447
  24048926.344 1 126377912.678 1  98476361.54445  24048936.55945
  21644780.359 6 113744086.807 6  88631762.37349  21644791.34049
 22  7  3 17 15 25.0000000  0  8G05G07G13G14G17G19G20G30            
  23436609.438 3 123160206.788 3  95969025.81147  23436618.96947
  23326553.492 5 122581860.196 5  95518365.38748  23326562.94548
  21616740.563 6 113596738.339 6  88516974.92647  21616749.20347
  20681378.555 6 108681377.195 6  84686826.12548  20681388.09448
  21667814.594 6 113865133.812 6  88726082.15547  21667824.17247
  22761206.531 5 119611138.265 5  93203375.72947  22761214.83647
  24052180.938 2 126395018.750 2  98489690.97845  24052191.60945
  21646751.156 6 113754442.267 6  88639831.55849  21646761.66849
 22  7  3 17 15 30.0000000  0  8G05G07G13G14G17G19G20G30            
  23438792.367 4 123171678.262 4  95977964.61346  23438801.68446
  23329661.711 5 122598194.919 5  95531093.73648  23329671.14148
  21615456.555 6 113589991.137 6  88511717.36647  21615465.30947
  20683669.586 6 108693413.555 6  84696205.11048  20683678.57448
  21666270.484 6 113857019.113 6  88719759.02148  21666279.94148
  22759174.984 5 119600460.895 5  93195055.71347  22759183.37547
  24055437.414 1 126412128.838 1  98503023.44345  24055447.82045
  21648722.500 6 113764804.855 6  88647906.30749  21648733.67249
 22  7  3 17 15 35.0000000  0  8G05G07G13G14G17G19G20G30            
  23440976.688 4 123183162.918 4  95986913.68247  23440987.53147
  23332770.594 5 122614534.720 5  95543826.04948  23332780.19948
  21614174.977 6 113583254.813 6  88506468.28647  21614183.35247
  20685961.695 6 108705461.582 6  84705593.18548  20685971.16848
  21664728.734 6 113848916.956 6  88713445.66048  21664738.05148
  22757144.141 5 119589790.954 5  93186741.49747  22757152.71147
  24058692.961 1 126429242.640 1  98516358.87645  24058704.08245
  21650696.148 6 113775174.248 6  88655986.34749  21650706.97349
 22  7  3 17 15 40.0000000  0  8G05G07G13G14G17G19G20G30            
  23443165.133 4 123194661.154 4  95995873.33146  23443174.91846
  23335881.227 5 122630879.956 5  95556562.58748  23335891.02348
  21612894.781 6 113576529.739 6  88501227.98147  21612903.58247
  20688257.273 6 108717521.664 6  84714990.65348  20688266.29748
  21663189.609 6 113840827.693 6  88707142.33748  21663198.89548
  22755115.813 5 119579128.812 5  93178433.35047  22755124.30547
  24061950.797 1 126446360.542 1  98529697.43345  24061961.87945
  21652670.656 6 113785550.783 6  88664071.95049  21652681.51249
 22  7  3 17 15 45.0000000  0  8G05G07G13G14G17G19G20G30            
  23445356.484 3 123206173.170 3  96004843.73147  23445365.99247
  23338992.797 5 122647230.979 5  95569303.63648  23339002.31348
  21611617.211 6 113569816.243 6  88495996.68547  21611626.02047
  20690554.398 6 108729594.055 6  84724397.71248  20690563.53148
  21661652.711 6 113832751.642 6  88700849.31548  21661661.96548
  22753088.414 5 119568474.850 5  93170131.59047  22753096.61347
  24065210.023 1 126463482.695 1  98543039.38945  24065219.77745
  21654646.547 6 113795934.817 6  88672163.40649  21654657.62549
 22  7  3 17 15 50.0000000  0  8G05G07G13G14G17G19G20G30            
  23447549.469 4 123217698.265 4  96013824.29346  23447559.44946
  23342104.727 5 122663587.033 5  95582048.61148  23342114.72748
  21610341.734 6 113563113.686 6  88490773.91147  21610350.26647
  20692853.531 6 108741678.098 6  84733813.84548  20692862.97748
  21660118.125 6 113824688.128 6  88694566.06348  21660127.79348
  22751061.898 5 119557828.303 5  93161835.58947  22751070.40647
  24068468.367 1 126480608.537 1  98556384.20145  24068478.53145
  21656623.555 6 113806325.664 6  88680260.16249  21656634.93849
 22  7  3 17 15 55.0000000  0  8G05G07G13G14G17G19G20G30            
  23449744.891 3 123229236.774 3  96022815.32446  23449754.85946
  23345217.750 5 122679948.525 5  95594797.81848  23345227.86748
  21609068.977 6 113556422.326 6  88485559.87147  21609077.03147
  20695155.914 6 108753774.091 6  84743239.29948  20695164.77348
  21658586.586 6 113816637.483 6  88688292.83948  21658595.85548
  22749037.617 6 119547189.543 6  93153545.66647  22749045.52347
  24071728.523 2 126497738.366 2  98569732.06245  24071738.60545
  21658602.953 6 113816723.607 6  88688362.45849  21658613.94949
 22  7  3 17 16  0.0000000  0  8G05G07G13G14G17G19G20G30            
  23451943.500 4 123240788.678 4  96031816.78246  23451953.04346
  23348332.953 5 122696315.261 5  95607551.09748  23348342.59848
  21607797.789 6 113549742.119 6  88480354.51747  21607806.01647
  20697459.594 6 108765881.887 6  84752673.94648  20697468.83248
  21657056.367 6 113808599.588 6  88682029.54748  21657066.22348
  22747014.398 5 119536558.472 5  93145261.74047  22747022.78947
  24074987.906 1 126514871.989 1  98583082.97545  24074999.03145
  21660582.531 6 113827128.566 6  88696470.21849  21660593.91049
 22  7  3 17 16  5.0000000  0  8G05G07G13G14G17G19G20G30            
  23454143.359 4 123252354.095 4  96040828.79046  23454153.65246
  23351448.414 5 122712687.543 5  95620308.71648  23351457.90248
  21606528.938 6 113543073.351 6  88475158.08347  21606536.89547
  20699766.477 6 108778001.796 6  84762118.02748  20699775.12948
  21655529.680 6 113800574.793 6  88675776.45347  21655539.06647
  22744993.055 5 119525935.417 5  93136984.04347  22745001.10247
  24078249.578 1 126532009.855 1  98596437.12445  24078260.59845
  21662563.680 6 113837540.793 6  88704583.63149  21662575.16449
 22  7  3 17 16 10.0000000  0  8G05G07G13G14G17G19G20G30            
  23456347.344 4 123263932.768 4  96049851.11746  23456356.98046
  23354564.953 5 122729065.018 5  95633070.37748  23354574.73048
  21605261.523 6 113536415.688 6  88469970.28947  21605270.19147
  20702074.727 6 108790133.411 6  84771571.23448  20702083.71548
  21654005.258 6 113792562.706 6  88669533.27848  21654014.22748
  22742973.547 5 119515320.021 5  93128712.32647  22742980.78947
  24081511.922 1 126549151.327 1  98609794.06345  24081522.27745
  21664546.258 6 113847959.954 6  88712702.45749  21664557.75849
 22  7  3 17 16 15.0000000  0  8G05G07G13G14G17G19G20G30            
  23458553.070 4 123275525.256 4  96058884.21046  23458562.66446
  23357682.789 5 122745448.260 5  95645836.53548  23357692.84848
  21603997.203 6 113529769.696 6  88464791.60247  21604005.53147
  20704385.680 6 108802277.313 6  84781034.01648  20704394.68848
  21652482.672 6 113784563.961 6  88663300.48948  21652492.03548
  22740954.367 5 119504712.810 5  93120446.99947  22740962.38747
  24084774.242 1 126566297.172 1  98623154.47245  24084785.42245
  21666530.813 6 113858386.604 6  88720827.11949  21666542.09849
 22  7  3 17 16 20.0000000  0  8G05G07G13G14G17G19G20G30            
  23460762.242 4 123287131.067 4  96067927.68646  23460770.91846
  23360801.953 5 122761836.843 5  95658606.85348  23360811.23048
  21602734.625 6 113523135.011 6  88459621.72747  21602743.14847
  20706698.453 6 108814433.074 6  84790506.04348  20706707.29748
  21650962.867 6 113776578.115 6  88657077.75848  21650972.29348
  22738937.063 5 119494113.425 5  93112187.75747  22738945.79747
  24088037.516 2 126583446.787 2  98636517.81245  24088048.21545
  21668515.742 6 113868820.353 6  88728957.31449  21668527.62549
 22  7  3 17 16 25.0000000  0  8G05G07G13G14G17G19G20G30            
  23462972.930 4 123298749.913 4  96076981.31546  23462982.09046
  23363921.281 5 122778230.488 5  95671381.12048  23363930.77748
  21601474.156 6 113516511.269 6  88454460.37147  21601482.58247
  20709014.203 6 108826600.362 6  84799987.04848  20709023.34048
  21649445.719 6 113768604.895 6  88650864.86748  21649455.13748
  22736921.992 6 119483521.557 6  93103934.37647  22736930.26247
  24091301.555 2 126600599.968 2  98649883.89445  24091312.81645
  21670503.273 6 113879260.874 6  88737092.78649  21670514.28949
 22  7  3 17 16 30.0000000  0  8G05G07G13G14G17G19G20G30            
  23465186.875 4 123310382.027 4  96086045.27546  23465195.63346
  23367042.063 5 122794629.511 5  95684159.57448  23367051.91848
  21600215.430 6 113509898.771 6  88449307.76747  21600224.40647
  20711331.133 6 108838779.497 6  84809477.28448  20711340.69548
  21647931.078 6 113760644.616 6  88644662.05048  21647940.79748
  22734907.203 5 119472937.585 5  93095687.16247  22734916.05947
  24094566.641 1 126617756.930 1  98663252.91145  24094577.69945
  21672491.188 6 113889708.453 6  88745233.75749  21672502.40249
 22  7  3 17 16 35.0000000  0  8G05G07G13G14G17G19G20G30            
  23467402.344 4 123322027.435 4  96095119.61147  23467412.04347
  23370163.148 5 122811033.755 5  95696942.09748  23370173.61748
  21598959.203 6 113503297.369 6  88444163.82047  21598967.75047
  20713651.250 6 108850970.358 6  84818976.65548  20713660.20748
  21646419.016 6 113752697.164 6  88638469.23648  21646428.17648
  22732894.953 5 119462361.338 5  93087445.94847  22732903.46547
  24097832.977 2 126634917.655 2  98676624.94845  24097843.62945
  21674480.273 6 113900163.036 6  88753380.18849  21674491.94949
 22  7  3 17 16 40.0000000  0  8G05G07G13G14G17G19G20G30            
  23469621.383 4 123333685.851 4  96104204.09946  23469630.59046
  23373286.242 5 122827443.077 5  95709728.57548  23373296.26248
  21597705.188 6 113496707.054 6  88439028.51847  21597713.50447
  20715973.633 6 108863172.784 6  84828485.04148  20715982.58248
  21644909.047 6 113744762.485 6  88632286.37848  21644917.90648
  22730883.148 5 119451792.728 5  93079210.69247  22730891.98047
  24101097.688 2 126652081.851 2  98689999.56345  24101109.34845
  21676470.781 6 113910624.500 6  88761531.97749  21676482.50849
 22  7  3 17 16 45.0000000  0  8G05G07G13G14G17G19G20G30            
  23471841.984 4 123345357.077 4  96113298.55446  23471851.55946
  23376409.234 5 122843857.271 5  95722518.85448  23376419.86748
  21596453.336 6 113490127.602 6  88433901.67147  21596461.73447
  20718297.961 6 108875386.563 6  84838002.27148  20718306.76648
  21643401.047 6 113736840.393 6  88626113.32048  21643410.51248
  22728874.055 5 119441231.513 5  93070981.19047  22728882.40647
  24104366.094 1 126669249.421 1  98703376.91345  24104376.50445
  21678463.266 6 113921092.553 6  88769688.89849  21678474.19149
 22  7  3 17 16 50.0000000  0  8G05G07G13G14G17G19G20G30            
  23474066.102 4 123357041.167 4  96122403.03446  23474074.93846
  23379533.602 5 122860276.560 5  95735313.08948  23379543.88748
  21595203.398 6 113483559.176 6  88428783.42247  21595211.89147
  20720624.164 6 108887611.847 6  84847528.46448  20720633.10548
  21641896.414 6 113728930.936 6  88619950.11248  21641905.11748
  22726865.539 5 119430677.912 5  93062757.63947  22726873.82447
  24107632.383 2 126686420.518 2  98716756.97745  24107643.53945
  21680457.000 6 113931567.400 6  88777851.11749  21680467.76249
 22  7  3 17 16 55.0000000  0  8G05G07G13G14G17G19G20G30            
  23476291.641 4 123368738.490 4  96131517.81346  23476300.96146
  23382659.242 5 122876701.070 5  95748111.40648  23382669.35548
  21593955.555 6 113477002.002 6  88423673.93547  21593963.89147
  20722952.719 6 108899848.791 6  84857063.73948  20722961.61748
  21640393.414 6 113721034.333 6  88613796.92448  21640402.72748
  22724858.641 5 119420132.150 5  93054540.18047  22724867.27047
  24110901.469 1 126703595.205 1  98730139.81945  24110912.46545
  21682451.594 6 113942049.259 6  88786018.79249  21682462.34449
 22  7  3 17 17  0.0000000  0  8G05G07G13G14G17G19G20G30            
  23478519.992 4 123380449.156 4  96140642.99046  23478529.34046
  23385785.594 5 122893131.097 5  95760914.01948  23385795.84848
  21592710.102 6 113470456.314 6  88418573.40347  21592718.48047
  20725283.438 6 108912097.662 6  84866608.31348  20725292.51248
  21638893.398 6 113713150.885 6  88607653.98748  21638902.39148
  22722853.719 5 119409594.439 5  93046329.01447  22722861.85247
  24114170.398 2 126720773.841 2  98743525.75445  24114181.25445
  21684446.922 6 113952538.329 6  88794192.09049  21684458.35949
 22  7  3 17 17  5.0000000  0  8G05G07G13G14G17G19G20G30            
  23480751.055 3 123392172.790 3  96149778.29046  23480760.61346
  23388913.500 5 122909566.217 5  95773720.60348  23388923.43848
  21591466.250 6 113463921.753 6  88413481.54647  21591475.03147
  20727616.789 6 108924358.046 6  84876161.85648  20727625.53548
  21637395.938 6 113705280.202 6  88601520.98548  21637404.48448
  22720850.023 5 119399064.456 5  93038123.86147  22720858.00047
  24117439.383 2 126737955.879 2  98756914.30945  24117451.02745
  21686444.781 6 113963034.261 6  88802370.73749  21686456.13749
 22  7  3 17 17 10.0000000  0  8G05G07G13G14G17G19G20G30            
  23482984.531 4 123403909.556 4  96158923.79746  23482993.78146
  23392041.836 5 122926006.553 5  95786531.24448  23392051.64548
  21590225.055 6 113457398.471 6  88408398.46347  21590233.70747
  20729952.289 6 108936630.081 6  84885724.49048  20729960.84048
  21635900.500 6 113697422.416 6  88595398.03248  21635909.50848
  22718847.906 5 119388542.282 5  93029924.78047  22718855.78547
  24120710.672 2 126755141.570 2  98770305.81345  24120721.56645
  21688443.438 6 113973537.137 6  88810554.79349  21688454.08649
 22  7  3 17 17 15.0000000  0  8G05G07G13G14G17G19G20G30            
  23485220.102 5 123415658.962 5  96168079.15746  23485229.74646
  23395171.219 5 122942451.663 5  95799345.61748  23395180.79348
  21588986.203 6 113450886.016 6  88403323.82347  21588994.32447
  20732288.711 6 108948913.278 6  84895295.80448  20732298.17248
  21634407.523 6 113689577.138 6  88589284.83148  21634416.70348
  22716846.289 5 119378027.542 5  93021731.50347  22716854.87947
  24123981.172 2 126772330.413 2  98783699.62245  24123991.73045
  21690443.094 6 113984046.556 6  88818743.95449  21690454.18849
 22  7  3 17 17 20.0000000  0  8G05G07G13G14G17G19G20G30            
  23487458.477 5 123427421.134 5  96177244.47946  23487468.30146
  23398302.281 5 122958901.732 5  95812163.85748  23398310.97348
  21587748.828 6 113444384.558 6  88398257.75347  21587757.32047
  20734628.688 6 108961207.800 6  84904875.94648  20734637.70748
  21632917.594 6 113681744.512 6  88583181.49648  21632926.30548
  22714846.477 5 119367520.361 5  93013544.10946  22714854.87546
  24127253.227 2 126789522.503 2  98797096.05245  24127263.65645
  21692444.000 6 113994562.671 6  88826938.32949  21692455.21549
 22  7  3 17 17 25.0000000  0  8G05G07G13G14G17G19G20G30            
  23489699.500 5 123439196.178 5  96186419.83046  23489708.26246
  23401432.969 5 122975356.798 5  95824985.97948  23401442.62148
  21586513.547 6 113437894.169 6  88393200.31447  21586521.89847
  20736970.742 6 108973513.684 6  84914464.94848  20736979.65248
  21631429.242 6 113673924.636 6  88577088.09348  21631438.02748
  22712849.203 5 119357020.875 5  93005362.71147  22712856.91047
