     2.11           OBSERVATION DATA    GPS(GPS)            RINEX VERSION / TYPE
cnvtToRINEX 3.14.0  convertToRINEX OPR  20220810 190543 UTC PGM / RUN BY / DATE 
----------------------------------------------------------- COMMENT             
SC-HV-69                                                    MARKER NAME         
SC-HV-69                                                    MARKER NUMBER       
GNSS Observer       Trimble                                 OBSERVER / AGENCY   
4906165579          TRIMBLE 5700II      4.02                REC # / TYPE / VERS 
60266723            TRM39105.00                             ANT # / TYPE        
  3605446.6019 -4252919.8212 -3087093.2837                  APPROX POSITION XYZ 
        2.3000        0.0000        0.0000                  ANTENNA: DELTA H/E/N
     1     1     0                                          WAVELENGTH FACT L1/2
     4    C1    L1    L2    P2                              # / TYPES OF OBSERV 
  2022     7     3    14     7   55.0000000     GPS         TIME OF FIRST OBS   
  2022     7     3    14    56    0.0000000     GPS         TIME OF LAST OBS    
     0                                                      RCV CLOCK OFFS APPL 
    18                                                      LEAP SECONDS        
     8                                                      # OF SATELLITES     
   G04   578   578   578   578                              PRN / # OF OBS      
   G06     2     1     0     0                              PRN / # OF OBS      
   G07   578   578   578   578                              PRN / # OF OBS      
   G08   303   303   303   303                              PRN / # OF OBS      
   G09   578   578   578   578                              PRN / # OF OBS      
   G14   575   575   575   575                              PRN / # OF OBS      
   G20   560   559   556   557                              PRN / # OF OBS      
   G30   578   578   578   578                              PRN / # OF OBS      
CARRIER PHASE MEASUREMENTS: PHASE SHIFTS REMOVED            COMMENT             
                                                            END OF HEADER       
 22  7  3 14  7 55.0000000  0  4G04G07G09G30                        
  22782587.867 5 119723306.75815  93290929.83157  22782598.34447
  20175430.148 6 106022597.63216  82615044.38958  20175438.32848
  21116117.727 6 110965943.13916  86467009.72059  21116128.12149
  21693322.672 6 113999180.90816  88830556.02858  21693332.44948
 22  7  3 14  8  0.0000000  0  4G04G07G09G30                        
  22785173.727 5 119736897.121 5  93301519.71647  22785184.53547
  20176563.867 6 106028555.230 6  82619686.66948  20176572.00448
  21117312.719 6 110972225.784 6  86471905.28549  21117323.14549
  21692888.734 6 113996899.978 6  88828778.65648  21692899.28948
 22  7  3 14  8  5.0000000  0  4G04G07G09G30                        
  22787762.906 5 119750498.737 5  93312118.37247  22787772.98047
  20177700.664 6 106034528.723 6  82624341.34248  20177709.02748
  21118510.914 6 110978520.968 6  86476810.62549  21118521.50849
  21692458.188 6 113994633.535 6  88827012.60547  21692468.53547
 22  7  3 14  8 10.0000000  0  5G04G07G09G14G30                     
  22790353.203 5 119764113.544 5  93322727.30847  22790363.76647
  20178840.805 6 106040520.150 6  82629009.97948  20178848.67648
  21119711.375 6 110984830.739 6  86481727.32749  21119722.01249
  23802171.625 4 125081251.78014  97465958.05056  23802183.03546
  21692029.641 6 113992383.600 6  88825259.40348  21692040.27348
 22  7  3 14  8 15.0000000  0  5G04G07G09G14G30                     
  22792947.055 5 119777743.024 5  93333347.68547  22792956.82847
  20179984.500 6 106046530.999 6  82633693.76048  20179992.87948
  21120915.266 6 110991156.477 6  86486656.47149  21120925.73449
  23799633.328 4 125067916.508 4  97455566.96346  23799644.65246
  21691604.586 6 113990151.510 6  88823520.11448  21691615.66448
 22  7  3 14  8 20.0000000  0  5G04G07G09G14G30                     
  22795543.523 5 119791387.599 5  93343979.81347  22795553.45347
  20181132.586 6 106052561.559 6  82638392.89348  20181140.44948
  21122122.422 6 110997498.688 6  86491598.45249  21122132.82449
  23797098.422 4 125054593.657 4  97445185.53146  23797109.87946
  21691183.828 6 113987937.802 6  88821795.15348  21691194.35248
 22  7  3 14  8 25.0000000  0  5G04G07G09G14G30                     
  22798143.430 5 119805047.569 5  93354623.95347  22798153.53547
  20182283.750 6 106058612.172 6  82643107.65448  20182292.05148
  21123332.711 6 111003857.678 6  86496553.51049  21123342.88749
  23794565.875 4 125041283.576 4  97434814.05946  23794577.17646
  21690765.625 6 113985742.772 6  88820084.74547  21690776.73447
 22  7  3 14  8 30.0000000  0  5G04G07G09G14G30                     
  22800745.828 5 119818722.966 5  93365280.10547  22800756.09847
  20183438.891 6 106064682.835 6  82647838.04048  20183446.95348
  21124545.391 6 111010233.410 6  86501521.60549  21124555.64549
  23792035.492 5 125027986.165 5  97424452.46946  23792046.90246
  21690351.531 6 113983566.360 6  88818388.83447  21690362.74247
 22  7  3 14  8 35.0000000  0  5G04G07G09G14G30                     
  22803351.305 5 119832413.537 5  93375948.07647  22803361.02047
  20184598.156 6 106070773.302 6  82652583.85748  20184605.75448
  21125762.234 6 111016625.710 6  86506502.61249  21125772.37549
  23789507.602 5 125014701.371 5  97414100.67946  23789518.67246
  21689940.945 6 113981408.406 6  88816707.32447  21689951.74647
 22  7  3 14  8 40.0000000  0  6G04G07G09G14G20G30                  
  22805959.188 5 119846119.436 5  93386627.98847  22805969.10947
  20185760.789 6 106076883.723 6  82657345.22448  20185768.69148
  21126982.070 6 111023034.686 6  86511496.62149  21126991.67249
  23786981.586 5 125001429.206 5  97403758.75146  23786993.16446
  23452690.203 4 123244708.08514  96034874.01056  23452697.99646
  21689533.844 6 113979268.996 6  88815040.24147  21689545.18047
 22  7  3 14  8 45.0000000  0  6G04G07G09G14G20G30                  
  22808570.352 5 119859840.269 5  93397319.54147  22808580.20347
  20186926.953 6 106083013.709 6  82662121.84048  20186935.18448
  21128204.141 6 111029459.985 6  86516503.34849  21128214.66449
  23784458.086 5 124988169.339 5  97393426.41646  23784469.95746
  23451223.156 3 123237003.669 3  96028870.54746  23451231.80146
  21689129.906 6 113977147.750 6  88813387.32847  21689141.62147
 22  7  3 14  8 50.0000000  0  6G04G07G09G14G20G30                  
  22811183.602 5 119873575.786 5  93408022.54547  22811194.02347
  20188096.703 6 106089162.998 6  82666913.49248  20188105.22348
  21129429.938 6 111035901.342 6  86521522.58549  21129440.68049
  23781937.422 5 124974921.552 5  97383103.47246  23781948.99646
  23449761.289 3 123229318.512 3  96022882.12246  23449769.71946
  21688729.820 6 113975044.430 6  88811748.38347  21688741.18047
 22  7  3 14  8 55.0000000  0  6G04G07G09G14G20G30                  
  22813799.305 5 119887325.602 5  93418736.69247  22813810.50847
  20189270.953 6 106095331.227 6  82671719.90448  20189279.31348
  21130658.883 6 111042358.313 6  86526553.99449  21130668.95749
  23779418.742 5 124961685.396 5  97372789.59946  23779430.50846
  23448302.258 4 123221652.138 4  96016908.31346  23448310.93446
  21688332.656 6 113972958.641 6  88810123.09847  21688344.10947
 22  7  3 14  9  0.0000000  0  6G04G07G09G14G20G30                  
  22816418.953 5 119901089.212 5  93429461.56847  22816429.46547
  20190448.414 6 106101517.865 6  82676540.66548  20190456.22748
  21131890.406 6 111048830.523 6  86531597.26749  21131900.65249
  23776902.539 5 124948460.441 5  97362484.46246  23776913.30546
  23446847.617 3 123214004.189 3  96010948.86046  23446855.09846
  21687939.328 6 113970889.871 6  88808511.07347  21687950.69547
 22  7  3 14  9  5.0000000  0  6G04G07G09G14G20G30                  
  22819041.313 5 119914866.794 5  93440197.33647  22819051.35247
  20191629.086 6 106107723.085 6  82681375.89648  20191637.01648
  21133125.227 6 111055318.058 6  86536652.48949  21133135.41849
  23774387.266 5 124935246.854 5  97352188.18046  23774399.17646
  23445395.438 3 123206374.837 3  96005003.93946  23445403.82846
  21687548.602 6 113968838.271 6  88806912.43047  21687559.95347
 22  7  3 14  9 10.0000000  0  6G04G07G09G14G20G30                  
  22821664.938 5 119928658.057 5  93450943.76147  22821675.29747
  20192813.242 6 106113946.582 6  82686225.37948  20192821.30548
  21134362.195 6 111061820.666 6  86541719.45549  21134372.49649
  23771876.094 5 124922044.386 5  97341900.56046  23771886.73046
  23443947.594 3 123198763.701 3  95999073.18646  23443955.03946
  21687161.445 6 113966803.596 6  88805326.96847  21687172.56347
 22  7  3 14  9 15.0000000  0  6G04G07G09G14G20G30                  
  22824292.148 5 119942462.512 5  93461700.48947  22824302.86347
  20194001.336 6 106120187.818 6  82691088.67648  20194008.98048
  21135602.563 6 111068337.816 6  86546797.75249  21135612.84049
  23769365.047 5 124908852.501 5  97331621.20946  23769376.23846
  23442502.063 3 123191170.335 3  95993156.26946  23442510.31346
  21686777.547 6 113964785.252 6  88803754.24747  21686788.86747
 22  7  3 14  9 20.0000000  0  6G04G07G09G14G20G30                  
  22826921.602 5 119956279.904 5  93472467.28247  22826931.91047
  20195192.258 6 106126446.563 6  82695965.62048  20195199.85548
  21136845.336 6 111074869.311 6  86551887.23349  21136855.86749
  23766856.633 5 124895671.018 5  97321349.92446  23766867.92246
  23441060.430 3 123183594.576 3  95987253.09546  23441069.01646
  21686396.266 6 113962783.091 6  88802194.11947  21686407.51247
 22  7  3 14  9 25.0000000  0  6G04G07G09G14G20G30                  
  22829553.703 5 119970110.221 5  93483244.14847  22829563.66847
  20196386.281 6 106132722.803 6  82700856.19448  20196394.15248
  21138091.383 6 111081415.124 6  86556987.86049  21138101.41049
  23764350.359 4 124882499.901 4  97311086.73746  23764361.48846
  23439622.023 3 123176036.350 3  95981363.58046  23439630.66046
  21686017.898 6 113960797.122 6  88800646.62147  21686030.15247
 22  7  3 14  9 30.0000000  0  6G04G07G09G14G20G30                  
  22832187.297 5 119983953.126 5  93494030.82247  22832198.02747
  20197583.594 6 106139016.172 6  82705760.11948  20197591.58248
  21139339.453 6 111087974.900 6  86562099.37249  21139349.92649
  23761845.633 5 124869338.821 5  97300831.37046  23761857.36346
  23438186.086 3 123168495.258 3  95975487.41746  23438195.60246
  21685643.367 6 113958826.858 6  88799111.34847  21685654.76647
 22  7  3 14  9 35.0000000  0  6G04G07G09G14G20G30                  
  22834824.789 5 119997809.035 5  93504827.64047  22834834.40247
  20198784.805 6 106145327.085 6  82710677.70748  20198792.35248
  21140590.539 6 111094549.115 6  86567222.13549  21140600.63749
  23759342.883 4 124856188.231 4  97290584.18446  23759354.24646
  23436754.469 3 123160971.956 3  95969625.12746  23436763.64146
  21685271.898 6 113956872.843 6  88797588.73847  21685282.79747
 22  7  3 14  9 40.0000000  0  6G04G07G09G14G20G30                  
  22837463.344 5 120011677.108 5  93515633.91147  22837473.49647
  20199989.156 6 106151654.658 6  82715608.28948  20199996.60948
  21141843.953 6 111101136.861 6  86572355.44049  21141854.60549
  23756842.453 5 124843047.230 5  97280344.45646  23756853.67646
  23435325.211 2 123153465.393 2  95963775.85646  23435335.64546
  21684902.656 6 113954934.130 6  88796078.05947  21684914.07847
 22  7  3 14  9 45.0000000  0  6G04G07G09G14G20G30                  
  22840105.102 5 120025556.755 5  93526449.23047  22840114.70747
  20201196.313 6 106157998.385 6  82720551.44848  20201203.58248
  21143100.188 6 111107737.615 6  86577498.87849  21143110.40649
  23754343.742 5 124829915.360 5  97270111.85446  23754354.78946
  23433900.516 3 123145975.125 3  95957939.27246  23433909.90246
  21684536.094 6 113953010.244 6  88794578.93447  21684547.59047
 22  7  3 14  9 50.0000000  0  6G04G07G09G14G20G30                  
  22842748.406 5 120039448.722 5  93537274.12847  22842758.18047
  20202406.352 6 106164358.904 6  82725507.69748  20202413.86348
  21144358.766 6 111114352.071 6  86582653.00049  21144369.43049
  23751846.148 4 124816793.247 4  97259886.85246  23751857.46146
  23432478.281 3 123138501.837 3  95952115.95746  23432487.91046
  21684173.445 6 113951101.811 6  88793091.84347  21684184.56347
 22  7  3 14  9 55.0000000  0  6G04G07G09G14G20G30                  
  22845393.195 5 120053352.593 5  93548108.31247  22845403.91047
  20203619.586 6 106170735.853 6  82730476.74848  20203627.66048
  21145620.047 6 111120979.855 6  86587817.50149  21145630.49649
  23749350.734 5 124803680.532 5  97249669.16346  23749361.68046
  23431060.156 3 123131045.093 3  95946305.50546  23431068.94146
  21683813.086 6 113949208.473 6  88791616.52947  21683824.15247
 22  7  3 14 10  0.0000000  0  7G04G06G07G09G14G20G30               
  22848042.141 5 120067267.875 5  93558951.38947  22848052.01247
  24151485.180 1                                
  20204836.336 6 106177128.724 6  82735458.20348  20204844.39548
  21146884.313 6 111127620.457 6  86592991.99449  21146894.37949
  23746856.938 5 124790576.804 5  97239458.49946  23746867.87546
  23429645.234 4 123123604.471 4  95940507.61346  23429653.12546
  21683455.359 6 113947329.753 6  88790152.58747  21683466.67647
 22  7  3 14 10  5.0000000  0  7G04G06G07G09G14G20G30               
  22850691.758 5 120081194.638 5  93569803.40447  22850702.52047
  24154586.711 1 126933147.074 1                
  20206055.953 6 106183537.560 6  82740452.09348  20206063.46948
  21148149.984 6 111134273.953 6  86598176.53649  21148160.45349
  23744365.406 5 124777482.060 5  97229254.82846  23744375.99646
  23428231.438 4 123116180.027 4  95934722.35246  23428240.12946
  21683100.805 6 113945465.659 6  88788700.04647  21683112.77047
 22  7  3 14 10 10.0000000  0  6G04G07G09G14G20G30                  
  22853344.258 5 120095132.421 5  93580664.02347  22853354.46147
  20207278.164 6 106189961.923 6  82745458.08948  20207286.00448
  21149418.148 6 111140939.872 6  86603370.75149  21149428.48449
  23741874.547 5 124764395.881 5  97219057.81846  23741885.51246
  23426821.367 4 123108771.332 4  95928949.35746  23426830.72746
  21682748.719 6 113943615.758 6  88787258.57447  21682760.07447
 22  7  3 14 10 15.0000000  0  6G04G07G09G14G20G30                  
  22855998.531 5 120109081.576 5  93591533.48547  22856009.21947
  20208503.836 6 106196402.142 6  82750476.44648  20208511.56348
  21150689.336 6 111147618.596 6  86608574.95649  21150699.76249
  23739386.438 5 124751318.604 5  97208867.77146  23739396.53946
  23425414.836 4 123101378.759 4  95923188.89546  23425423.93046
  21682400.164 6 113941780.394 6  88785828.42747  21682411.18447
 22  7  3 14 10 20.0000000  0  6G04G07G09G14G20G30                  
  22858655.320 5 120123041.968 5  93602411.71847  22858665.89547
  20209732.883 6 106202858.035 6  82755507.01548  20209740.59448
  21151962.531 6 111154309.994 6  86613789.03349  21151973.00049
  23736899.305 5 124738250.165 5  97198684.60446  23736909.69146
  23424012.031 4 123094002.182 4  95917440.91546  23424020.17646
  21682052.984 6 113939959.455 6  88784409.51947  21682065.18047
 22  7  3 14 10 25.0000000  0  6G04G07G09G14G20G30                  
  22861313.586 5 120137013.661 5  93613298.72647  22861324.52347
  20210963.563 6 106209329.657 6  82760549.84048  20210971.84448
  21153238.250 6 111161014.089 6  86619012.99749  21153248.77349
  23734413.977 5 124725190.529 5  97188508.29146  23734424.86346
  23422610.313 4 123086641.546 4  95911705.37046  23422619.78146
  21681709.313 6 113938152.907 6  88783001.81247  21681720.68047
 22  7  3 14 10 30.0000000  0  6G04G07G09G14G20G30                  
  22863975.039 5 120150996.192 5  93624194.19747  22863985.09047
  20212198.156 6 106215816.540 6  82765604.54948  20212206.68448
  21154516.391 6 111167730.439 6  86624246.51349  21154526.95749
  23731930.406 5 124712139.330 5  97178338.55846  23731941.32046
  23421212.445 4 123079296.497 4  95905981.93446  23421221.85246
  21681368.102 6 113936360.368 6  88781605.03547  21681379.58247
 22  7  3 14 10 35.0000000  0  6G04G07G09G14G20G30                  
  22866637.539 5 120164989.558 5  93635098.10247  22866648.37547
  20213436.078 6 106222318.701 6  82770671.17148  20213443.62148
  21155797.000 6 111174459.089 6  86629489.60949  21155807.35949
  23729449.156 5 124699096.569 5  97168175.41046  23729459.11746
  23419817.766 4 123071967.042 4  95900270.65646  23419826.98846
  21681029.602 6 113934581.822 6  88780219.16947  21681040.98847
 22  7  3 14 10 40.0000000  0  6G04G07G09G14G20G30                  
  22869302.680 5 120178993.505 5  93646010.27147  22869313.17647
  20214676.047 6 106228835.869 6  82775749.51248  20214683.94148
  21157079.719 6 111181199.715 6  86634742.05849  21157090.14149
  23726967.820 5 124686061.971 5  97158018.58946  23726979.08646
  23418425.695 4 123064652.882 4  95894571.31446  23418434.90646
  21680693.992 6 113932816.973 6  88778843.97447  21680705.35547
 22  7  3 14 10 45.0000000  0  6G04G07G09G14G20G30                  
  22871968.945 5 120193007.974 5  93656930.63347  22871980.10947
  20215919.117 6 106235368.035 6  82780839.49348  20215927.03948
  21158364.883 6 111187952.326 6  86640003.83349  21158375.30549
  23724489.234 5 124673035.512 5  97147868.13446  23724500.37146
  23417037.977 3 123057353.997 3  95888883.87946  23417045.77046
  21680360.914 6 113931065.835 6  88777479.45647  21680371.95347
 22  7  3 14 10 50.0000000  0  6G04G07G09G14G20G30                  
  22874637.719 5 120207032.884 5  93667859.12347  22874648.37947
  20217164.711 6 106241915.049 6  82785941.07248  20217173.01248
  21159652.195 6 111194716.815 6  86645274.86349  21159662.22349
  23722011.586 5 124660017.181 5  97137724.01646  23722023.28546
  23415651.625 4 123050070.336 4  95883208.28446  23415659.92646
  21680029.977 6 113929328.261 6  88776125.51647  21680041.25047
 22  7  3 14 10 55.0000000  0  6G04G07G09G14G20G30                  
  22877308.703 5 120221068.395 5  93678795.89647  22877319.24647
  20218413.656 6 106248477.077 6  82791054.33548  20218421.60548
  21160941.602 6 111201493.351 6  86650555.27249  21160951.55149
  23719536.141 5 124647006.979 5  97127586.20846  23719547.64146
  23414268.141 4 123042801.977 4  95877544.63646  23414276.60246
  21679702.641 6 113927604.393 6  88774782.25047  21679713.12947
 22  7  3 14 11  0.0000000  0  6G04G07G09G14G20G30                  
  22879981.703 5 120235114.214 5  93689740.67747  22879992.35547
  20219665.055 6 106255053.812 6  82796179.07148  20219672.99648
  21162233.289 6 111208281.637 6  86655844.84749  21162243.32449
  23717061.938 5 124634004.771 5  97117454.65446  23717073.51246
  23412887.977 3 123035548.770 3  95871892.77646  23412896.33646
  21679377.023 6 113925893.996 6  88773449.48347  21679387.43447
 22  7  3 14 11  5.0000000  0  6G04G07G09G14G20G30                  
  22882656.844 5 120249170.196 5  93700693.38747  22882666.95347
  20220919.148 6 106261645.112 6  82801315.14748  20220927.56348
  21163527.398 6 111215081.568 6  86661143.48849  21163537.35249
  23714589.063 5 124621010.388 5  97107329.18846  23714601.02746
  23411511.508 4 123028310.573 4  95866252.61046  23411518.95746
  21679053.359 6 113924196.901 6  88772127.07447  21679064.88747
 22  7  3 14 11 10.0000000  0  6G04G07G09G14G20G30                  
  22885333.305 5 120263236.275 5  93711653.95747  22885343.30147
  20222176.375 6 106268250.882 6  82806462.50348  20222184.53148
  21164823.367 6 111221893.010 6  86666451.10749  21164833.94549
  23712117.703 5 124608023.733 5  97097209.73946  23712129.98446
  23410136.008 3 123021087.229 3  95860624.04946  23410145.27046
  21678733.500 6 113922512.965 6  88770814.92448  21678744.25048
 22  7  3 14 11 15.0000000  0  6G04G07G09G14G20G30                  
  22888011.719 5 120277312.134 5  93722622.16047  22888022.27747
  20223436.219 6 106274870.830 6  82811620.90848  20223444.11348
  21166121.242 6 111228715.673 6  86671767.46749  21166131.50849
  23709647.617 5 124595044.571 5  97087096.13146  23709660.30546
  23408764.102 3 123013878.547 3  95855006.90546  23408772.86346
  21678415.438 6 113920841.944 6  88769512.85948  21678426.31348
 22  7  3 14 11 20.0000000  0  6G04G07G09G14G20G30                  
  22890692.281 5 120291398.260 5  93733598.35447  22890703.13747
  20224698.250 6 106281505.403 6  82816790.69848  20224706.70348
  21167422.352 6 111235550.094 6  86677092.99049  21167432.35949
  23707179.789 5 124582073.358 5  97076988.71546  23707191.44546
  23407395.195 3 123006684.835 3  95849401.43546  23407404.31346
  21678100.242 6 113919184.332 6  88768221.20048  21678110.96948
 22  7  3 14 11 25.0000000  0  6G04G07G09G14G20G30                  
  22893375.109 5 120305494.113 5  93744582.13047  22893385.02347
  20225963.688 6 106288154.015 6  82821971.44148  20225971.91448
  21168725.023 6 111242395.683 6  86682427.21649  21168734.89849
  23704712.484 5 124569109.566 5  97066887.08746  23704725.02346
  23406029.094 3 122999505.739 3  95843807.31646  23406038.38746
  21677787.203 6 113917539.552 6  88766939.57148  21677797.82048
 22  7  3 14 11 30.0000000  0  6G04G07G09G14G20G30                  
  22896058.664 5 120319599.783 5  93755573.53646  22896069.59046
  20227231.977 6 106294816.766 6  82827163.19548  20227239.93048
  21170029.578 6 111249252.521 6  86687770.20349  21170039.72749
  23702247.234 5 124556153.235 5  97056791.26046  23702259.54346
  23404664.977 3 122992341.304 3  95838224.66946  23404674.60546
  21677476.242 6 113915907.641 6  88765667.95348  21677487.44548
 22  7  3 14 11 35.0000000  0  6G04G07G09G14G20G30                  
  22898744.648 5 120333715.553 5  93766572.85247  22898755.31347
  20228501.938 6 106301493.979 6  82832366.22348  20228510.34448
  21171336.828 6 111256120.989 6  86693122.25049  21171347.16849
  23699783.531 5 124543204.773 5  97046701.56147  23699796.01247
  23403304.930 3 122985191.783 3  95832653.63446  23403314.32046
  21677168.422 6 113914288.984 6  88764406.66747  21677179.51647
 22  7  3 14 11 40.0000000  0  6G04G07G09G14G20G30                  
  22901433.133 5 120347841.257 5  93777579.86947  22901443.35947
  20229775.344 6 106308185.438 6  82837580.34448  20229783.94548
  21172646.063 6 111263000.835 6  86698483.17049  21172655.92249
  23697320.695 5 124530263.944 5  97036617.82547  23697333.25447
  23401947.195 3 122978057.175 3  95827094.19146  23401957.05946
  21676863.023 6 113912683.329 6  88763155.51448  21676874.13748
 22  7  3 14 11 45.0000000  0  6G04G07G09G14G20G30                  
  22904122.758 5 120361976.838 5  93788594.60747  22904134.09047
  20231051.750 6 106314891.128 6  82842805.55948  20231060.37548
  21173957.148 6 111269892.021 6  86703852.92149  21173967.62949
  23694859.578 5 124517330.771 5  97026540.04747  23694871.87547
  23400591.750 2 122970937.268 2  95821546.20846  23400601.61346
  21676560.047 6 113911090.670 6  88761914.47348  21676570.79348
 22  7  3 14 11 50.0000000  0  6G04G07G09G14G20G30                  
  22906814.680 5 120376122.044 5  93799616.84047  22906825.65247
  20232330.094 6 106321610.697 6  82848041.59248  20232338.37948
  21175270.820 6 111276794.315 6  86709231.33549  21175280.74249
  23692400.273 5 124504404.936 5  97016467.99447  23692412.21947
  23399239.195 3 122963831.821 3  95816009.50946  23399249.35946
  21676258.867 6 113909510.719 6  88760683.35448  21676269.87148
 22  7  3 14 11 55.0000000  0  6G04G07G09G14G20G30                  
  22909508.750 5 120390277.168 5  93810646.80247  22909519.35247
  20233611.594 6 106328344.504 6  82853288.71048  20233620.01248
  21176586.406 6 111283707.995 6  86714618.60949  21176596.67249
  23689942.070 5 124491486.771 5  97006401.91747  23689953.86347
  23397891.031 3 122956741.202 3  95810484.34746  23397899.91046
  21675960.523 6 113907943.726 6  88759462.32448  21675971.94148
 22  7  3 14 12  0.0000000  0  6G04G07G09G14G20G30                  
  22912203.391 5 120404441.675 5  93821684.07047  22912214.53147
  20234895.828 6 106335092.042 6  82858546.53548  20234904.13748
  21177903.648 6 111290632.552 6  86720014.36949  21177914.27049
  23687484.828 5 124478575.788 5  96996341.44347  23687496.94947
  23396543.563 2 122949664.862 2  95804970.34346  23396553.48446
  21675665.016 6 113906389.256 6  88758251.04748  21675675.71948
 22  7  3 14 12  5.0000000  0  6G04G07G09G14G20G30                  
  22914900.805 5 120418615.478 5  93832728.59847  22914911.65247
  20236181.805 6 106341853.202 6  82863814.97248  20236190.81648
  21179223.898 6 111297567.912 6  86725418.54749  21179233.89549
  23685029.500 5 124465671.861 5  96986286.46747  23685041.68047
  23395199.977 3 122942602.708 3  95799467.34246  23395209.60246
  21675371.945 6 113904847.154 6  88757049.42548  21675382.62948
 22  7  3 14 12 10.0000000  0  6G04G07G09G14G20G30                  
  22917599.945 5 120432799.035 5  93843780.72847  22917610.90647
  20237471.609 6 106348628.397 6  82869094.34448  20237480.12548
  21180546.008 6 111304514.494 6  86730831.45949  21180555.96149
  23682575.391 5 124452775.494 5  96976237.36647  23682587.23847
  23393858.688 3 122935555.245 3  95793975.84546  23393868.62146
  21675080.758 6 113903317.869 6  88755857.78048  21675091.60248
 22  7  3 14 12 15.0000000  0  6G04G07G09G14G20G30                  
  22920300.133 5 120446992.148 5  93854840.28447  22920311.83647
  20238763.352 6 106355417.347 6  82874384.43148  20238772.02348
  21181869.641 6 111311472.094 6  86736252.96849  21181879.84449
  23680122.180 5 124439886.416 5  96966193.95447  23680134.16047
  23392521.078 3 122928522.269 3  95788495.56546  23392530.03146
  21674791.867 6 113901801.182 6  88754675.95648  21674802.76648
 22  7  3 14 12 20.0000000  0  6G04G07G09G14G20G30                  
  22923003.688 5 120461194.794 5  93865907.27147  22923014.69947
  20240057.891 6 106362220.125 6  82879685.30748  20240066.60548
  21183196.117 6 111318440.743 6  86741683.08249  21183206.12949
  23677670.938 5 124427004.760 5  96956156.32747  23677682.83647
  23391185.219 3 122921503.803 3  95783026.64746  23391194.31346
  21674505.820 6 113900297.086 6  88753503.94248  21674516.95748
 22  7  3 14 12 25.0000000  0  6G04G07G09G14G20G30                  
  22925707.961 5 120475406.955 5  93876981.67347  22925719.14147
  20241354.648 6 106369036.671 6  82884996.90348  20241363.39548
  21184523.773 6 111325420.391 6  86747121.77249  21184534.47749
  23675221.578 5 124414130.404 5  96946124.38147  23675233.39847
  23389853.352 3 122914499.693 3  95777568.86945  23389861.59445
  21674222.281 6 113898805.604 6  88752341.75848  21674232.44548
 22  7  3 14 12 30.0000000  0  6G04G07G09G14G20G30                  
  22928414.125 5 120489628.210 5  93888063.17946  22928425.30146
  20242654.891 6 106375866.576 6  82890318.90848  20242663.34848
  21185854.266 6 111332410.653 6  86752568.73249  21185864.47349
  23672773.250 5 124401263.001 5  96936097.85847  23672784.76647
  23388522.688 3 122907509.702 3  95772122.15046  23388531.60946
  21673940.641 6 113897326.281 6  88751189.05048  21673951.08248
 22  7  3 14 12 35.0000000  0  6G04G07G09G14G20G30                  
  22931122.398 5 120503858.933 5  93899152.04846  22931133.53946
  20243957.289 6 106382710.130 6  82895651.55348  20243965.98448
  21187186.406 6 111339411.871 6  86758024.21749  21187196.98049
  23670326.047 5 124388402.876 5  96926076.99947  23670337.53947
  23387194.727 3 122900534.081 3  95766686.56246  23387204.19146
  21673661.227 6 113895859.446 6  88750046.05848  21673671.81348
 22  7  3 14 12 40.0000000  0  6G04G07G09G14G20G30                  
  22933831.828 5 120518098.877 5  93910248.09346  22933842.85246
  20245261.813 6 106389567.140 6  82900994.67948  20245270.18848
  21188520.828 6 111346423.793 6  86763488.05349  21188531.06649
  23667880.563 5 124375549.812 5  96916061.63547  23667891.68447
  23385870.719 2 122893572.600 2  95761262.06245  23385879.77345
  21673384.406 6 113894404.860 6  88748912.62448  21673395.19948
 22  7  3 14 12 45.0000000  0  6G04G07G09G14G20G30                  
  22936543.773 5 120532348.141 5  93921351.42046  22936554.41446
  20246569.438 6 106396437.644 6  82906348.31348  20246577.69948
  21189857.172 6 111353446.563 6  86768960.33749  21189867.41849
  23665435.586 5 124362703.921 5  96906051.88447  23665447.19147
  23384548.133 2 122886625.449 2  95755848.71145  23384557.70345
  21673110.047 6 113892962.626 6  88747788.80948  21673120.64848
 22  7  3 14 12 50.0000000  0  6G04G07G09G14G20G30                  
  22939257.305 4 120546606.649 4  93932461.92946  22939267.62946
  20247879.398 6 106403321.632 6  82911712.46548  20247887.92648
  21191195.703 6 111360480.093 6  86774441.00349  21191206.09449
  23662992.734 5 124349865.176 5  96896047.67347  23663004.22347
  23383228.375 1 122879692.420 1  95750446.28945  23383238.53145
  21672838.039 6 113891532.725 6  88746674.60748  21672848.68448
 22  7  3 14 12 55.0000000  0  6G04G07G09G14G20G30                  
  22941972.625 4 120560874.131 4  93943579.43647  22941982.77047
  20249191.648 6 106410218.815 6  82917086.89348  20249200.24648
  21192536.102 6 111367524.067 6  86779929.82149  21192546.18449
  23660550.727 5 124337033.241 5  96886048.78947  23660562.05147
  23381911.695 1 122872773.272 1  95745054.79445  23381921.69945
  21672568.070 6 113890114.810 6  88745569.73948  21672578.71548
 22  7  3 14 13  0.0000000  0  6G04G07G09G14G20G30                  
  22944688.789 5 120575150.565 5  93954703.91946  22944699.20346
  20250506.609 6 106417129.172 6  82922471.59448  20250514.79348
  21193878.594 6 111374578.601 6  86785426.85649  21193888.66449
  23658110.195 5 124324208.228 5  96876055.29247  23658120.96547
  23380596.648 1 122865868.223 1  95739674.23545  23380607.60245
  21672301.000 6 113888708.913 6  88744474.24448  21672311.33248
 22  7  3 14 13  5.0000000  0  6G04G07G09G14G20G30                  
  22647614.820 5 119014019.208 5  92738237.92846  22647625.99246
  19952032.133 6 104848634.407 6  81700267.88148  19952040.66848
  20895430.625 6 109806225.372 6  85563333.42849  20895441.01649
  23355878.211 6 122735967.926 6  95638465.47147  23355889.03947
  23079490.477 1 121283556.141 1  94506703.75945  23079503.54745
  21372243.078 6 112311895.112 6  87515788.16648  21372252.98848
 22  7  3 14 13 10.0000000  0  6G04G07G09G14G20G30                  
  22650335.055 5 119028313.916 5  92749376.67046  22650345.97746
  19953352.070 6 104855571.312 6  81705673.25148  19953360.23048
  20896777.453 6 109813301.141 6  85568847.01349  20896787.59449
  23353440.203 5 122723156.892 5  95628482.87547  23353451.29747
  23078182.773 1 121276679.257 1  94501345.21745  23078195.03545
  21371979.727 6 112310513.485 6  87514711.58248  21371990.53948
 22  7  3 14 13 15.0000000  0  6G04G07G09G14G20G30                  
  22653057.367 5 119042617.552 5  92760522.35246  22653067.61746
  19954675.180 6 104862521.293 6  81711088.83848  19954682.81348
  20898125.953 6 109820387.393 6  85574368.76449  20898135.95749
  23351003.375 6 122710352.812 6  95618505.68847  23351014.77747
  23076877.430 1 121269816.367 1  94495997.51246  23076888.82846
  21371719.266 6 112309143.853 6  87513644.33448  21371730.36348
 22  7  3 14 13 20.0000000  0  6G04G07G09G14G20G30                  
  22655781.031 5 119056930.041 5  92771674.94246  22655791.29746
  19955999.398 6 104869484.328 6  81716514.58048  19956008.12948
  20899476.508 6 109827484.038 6  85579898.61349  20899486.65649
  23348567.688 6 122697555.516 6  95608533.78747  23348579.25447
  23075575.063 1 121262967.390 1  94490660.64245  23075585.64545
  21371460.820 6 112307786.090 6  87512586.34148  21371471.45348
 22  7  3 14 13 25.0000000  0  6G04G07G09G14G20G30                  
  22658505.898 5 119071251.106 5  92782834.20047  22658516.52347
  19957327.688 6 104876460.081 6  81721950.23048  19957335.38348
  20900828.484 6 109834590.801 6  85585436.35349  20900838.85249
  23346134.023 6 122684764.693 6  95598566.94547  23346145.55147
  23074274.656 1 121256132.040 1  94485334.43945  23074285.02045
  21371205.008 6 112306439.919 6  87511537.38548  21371215.72348
 22  7  3 14 13 30.0000000  0  6G04G07G09G14G20G30                  
  22661232.586 5 119085581.095 5  92794000.43147  22661243.91847
  19958656.797 6 104883448.909 6  81727396.08148  19958665.36348
  20902182.727 6 109841708.010 6  85590982.22949  20902192.94949
  23343701.453 6 122671980.794 6  95588605.48047  23343712.80947
  23072978.719 2 121249310.701 2  94480019.11945  23072986.60945
  21370950.891 6 112305105.671 6  87510497.71248  21370961.63748
 22  7  3 14 13 35.0000000  0  6G04G07G09G14G20G30                  
  22663961.500 5 119099920.113 5  92805173.68747  22663972.53147
  19959989.141 6 104890450.925 6  81732852.19748  19959997.72348
  20903538.953 6 109848835.813 6  85596536.35949  20903549.27049
  23341269.992 6 122659203.921 6  95578649.49047  23341281.23847
  23071681.977 2 121242503.443 2  94474714.72846  23071691.28546
  21370699.086 6 112303783.477 6  87509467.43448  21370709.99248
 22  7  3 14 13 40.0000000  0  6G04G07G09G14G20G30                  
  22666691.359 5 119114267.852 5  92816353.74547  22666703.07047
  19961324.406 6 104897465.800 6  81738318.32948  19961333.12548
  20904897.695 6 109855973.891 6  85602098.49249  20904907.49249
  23338840.086 6 122646433.692 6  95568698.69047  23338851.23847
  23070389.086 3 121235709.980 3  94469421.14146  23070398.69546
  21370449.852 6 112302472.993 6  87508446.28148  21370460.51648
 22  7  3 14 13 45.0000000  0  6G04G07G09G14G20G30                  
  22669423.813 5 119128624.689 5  92827540.87647  22669434.81647
  19962661.594 6 104904493.826 6  81743794.71948  19962670.11748
  20906258.125 6 109863122.557 6  85607668.88149  20906268.19149
  23336410.727 5 122633670.564 5  95558753.41447  23336422.25447
  23069099.766 3 121228930.678 3  94464138.57546  23069108.77046
  21370202.945 6 112301174.618 6  87507434.56348  21370213.57448
 22  7  3 14 13 50.0000000  0  6G04G07G09G14G20G30                  
  22672157.250 5 119142990.381 5  92838734.90947  22672168.41047
  19964001.758 6 104911534.801 6  81749281.19748  19964010.13348
  20907620.492 6 109870281.630 6  85613247.37549  20907630.42649
  23333983.656 6 122620914.287 6  95548813.46947  23333995.09447
  23067812.602 3 121222165.280 3  94458866.83246  23067821.03546
  21369957.914 6 112299888.045 6  87506432.04648  21369968.73048
 22  7  3 14 13 55.0000000  0  6G04G07G09G14G20G30                  
  22674892.570 5 119157364.643 5  92849935.61747  22674903.77047
  19965344.180 6 104918588.448 6  81754777.53948  19965352.14848
  20908984.766 6 109877450.807 6  85618833.74549  20908994.46549
  23331557.086 6 122608164.594 6  95538878.66547  23331568.79347
  23066526.406 3 121215413.558 3  94453605.74946  23066536.35546
  21369715.383 6 112298613.028 6  87505438.52948  21369725.87148
 22  7  3 14 14  0.0000000  0  6G04G07G09G14G20G30                  
  22677629.867 5 119171747.729 5  92861143.21847  22677641.03547
  19966688.656 6 104925655.030 6  81760283.96348  19966696.84448
  20910350.641 6 109884630.392 6  85624428.22849  20910361.06349
  23329132.484 5 122595421.751 5  95528949.19947  23329143.98047
  23065245.547 3 121208675.802 3  94448355.57446  23065254.13746
  21369474.688 6 112297349.872 6  87504454.25848  21369485.71948
 22  7  3 14 14  5.0000000  0  6G04G07G09G14G20G30                  
  22680368.227 5 119186139.502 5  92872357.57646  22680379.91846
  19968036.117 6 104932734.383 6  81765800.34048  19968044.08248
  20911719.023 6 109891820.243 6  85630030.71349  20911729.11349
  23326708.773 6 122582685.624 6  95519024.94947  23326720.18047
  23063964.828 3 121201951.828 3  94443116.08446  23063974.85246
  21369236.945 6 112296098.362 6  87503479.05748  21369247.81648
 22  7  3 14 14 10.0000000  0  6G04G07G09G14G20G30                  
  22683109.539 5 119200539.856 5  92883578.63547  22683120.05947
  19969385.883 6 104939826.363 6  81771326.56748  19969393.53548
  20913089.070 6 109899020.191 6  85635641.05949  20913099.64849
  23324285.727 5 122569956.120 5  95509105.88046  23324297.83646
  23062688.203 2 121195241.496 2  94437887.27546  23062697.90646
  21369000.602 6 112294858.407 6  87502512.86148  21369011.79748
 22  7  3 14 14 15.0000000  0  6G04G07G09G14G20G30                  
  22685850.578 5 119214948.717 5  92894806.29746  22685862.08646
  19970737.422 6 104946930.914 6  81776862.57748  19970745.29348
  20914461.008 6 109906230.227 6  85641259.27249  20914471.32449
  23321865.594 6 122557233.155 6  95499191.89447  23321876.79747
  23061414.930 2 121188544.817 2  94432669.04146  23061423.17646
  21368767.016 6 112293629.903 6  87501555.59148  21368777.67248
 22  7  3 14 14 20.0000000  0  6G04G07G09G14G20G30                  
  22688594.664 5 119229366.313 5  92906040.78447  22688605.20747
  19972091.852 6 104954048.250 6  81782408.54848  19972100.49648
  20915834.742 6 109913450.566 6  85646885.51049  20915845.21549
  23319444.844 6 122544517.015 6  95489283.22647  23319456.48047
  23060142.758 2 121181861.855 2  94427461.57046  23060151.11746
  21368535.859 6 112292413.128 6  87500607.45648  21368546.57848
 22  7  3 14 14 25.0000000  0  6G04G07G09G14G20G30                  
  22691340.047 5 119243792.320 5  92917281.81347  22691350.21547
  19973448.102 6 104961178.059 6  81787964.25048  19973456.46148
  20917210.383 6 109920680.897 6  85652519.53349  20917221.48849
  23317027.336 6 122531807.401 6  95479379.65447  23317038.02047
  23058873.250 2 121175192.532 2  94422264.67645  23058882.43845
  21368306.125 6 112291207.773 6  87499668.22548  21368317.11748
 22  7  3 14 14 30.0000000  0  6G04G07G09G14G20G30                  
  22694086.219 5 119258227.394 5  92928529.93047  22694097.53547
  19974807.688 6 104968320.995 6  81793530.17548  19974815.91848
  20918588.625 6 109927921.838 6  85658161.82749  20918599.23049
  23314609.531 5 122519104.884 5  95469481.59746  23314620.25846
  23057606.430 1 121168537.395 1  94417078.88546  23057616.53946
  21368078.891 6 112290014.386 6  87498738.31348  21368089.75848
 22  7  3 14 14 35.0000000  0  6G04G07G09G14G20G30                  
  22696835.078 5 119272670.805 5  92939784.52347  22696845.88347
  19976169.336 6 104975476.306 6  81799105.73848  19976177.90648
  20919968.445 6 109935172.732 6  85663811.87749  20919978.98849
  23312193.570 5 122506408.782 5  95459588.56447  23312203.87947
  23056343.430 1 121161895.755 1  94411903.57245  23056352.46945
  21367854.164 6 112288832.321 6  87497817.22948  21367864.91448
 22  7  3 14 14 40.0000000  0  6G04G07G09G14G20G30                  
  22699585.023 5 119287122.905 5  92951045.89747  22699596.07847
  19977533.117 6 104982644.319 6  81804691.20348  19977541.38748
  20921350.352 6 109942433.864 6  85669469.90649  20921361.05149
  23309778.633 5 122493719.522 5  95449700.84746  23309788.66846
  23055079.891 1 121155267.938 1  94406739.04646  23055091.20746
  21367631.711 6 112287661.896 6  87496905.21648  21367642.80148
 22  7  3 14 14 45.0000000  0  6G04G07G09G14G20G30                  
  22702337.172 5 119301583.467 5  92962313.86747  22702347.61347
  19978899.898 6 104989824.791 6  81810286.37948  19978908.11748
  20922733.805 6 109949705.061 6  85675135.76649  20922744.67649
  23307365.734 5 122481036.851 5  95439818.28747  23307375.51647
  23053820.000 1 121148653.746 1  94401585.15345  23053832.14145
  21367410.883 6 112286502.906 6  87496002.11148  21367421.96148
 22  7  3 14 14 50.0000000  0  6G04G07G09G14G20G30                  
  22705089.766 5 119316052.314 5  92973588.28947  22705100.92647
  19980268.133 6 104997017.520 6  81815891.09848  19980276.72348
  20924119.453 6 109956986.078 6  85680809.28549  20924129.96149
  23304953.391 5 122468360.515 5  95429940.62546  23304963.08246
  23052565.070 1 121142052.983 1  94396441.72445  23052576.09845
  21367192.133 6 112285355.093 6  87495107.71148  21367203.39548
 22  7  3 14 14 55.0000000  0  6G04G07G09G14G20G30                  
  22707844.680 5 119330529.148 5  92984868.92547  22707855.78147
  19981639.508 6 105004222.286 6  81821505.20448  19981647.60948
  20925506.906 6 109964276.729 6  85686490.31349  20925517.17649
  23302542.477 5 122455690.400 5  95420067.83646  23302552.18846
  23051311.211 1 121135465.51111  94391308.63255  23051322.60245
  21366976.211 6 112284218.247 6  87494221.87048  21366987.41448
 22  7  3 14 15  0.0000000  0  6G04G07G09G14G20G30                  
  22710601.367 5 119345014.509 5  92996156.22247  22710612.24647
  19983012.898 6 105011439.489 6  81827128.99648  19983021.01648
  20926896.305 6 109971577.461 6  85692179.18949  20926907.17249
  23300131.938 5 122443026.910 5  95410200.22246  23300142.64146
  23050062.344 1 121128891.714 1  94386186.18245  23050071.84845
  21366762.023 6 112283092.831 6  87493344.92648  21366773.21148
 22  7  3 14 15  5.0000000  0  6G04G07G09G14G20G30                  
  22713359.648 5 119359508.057 5  93007449.87646  22713369.87146
  19984388.563 6 105018668.889 6  81832762.30248  19984396.53148
  20928287.055 6 109978887.997 6  85697875.71549  20928297.54749
  23297723.906 5 122430369.801 5  95400337.55446  23297733.78546
  23048813.953 2 121122331.327 2  94381074.17845  23048823.41845
  21366550.063 6 112281978.568 6  87492476.66948  21366561.75048
 22  7  3 14 15 10.0000000  0  6G04G07G09G14G20G30                  
  22716119.227 5 119374010.121 5  93018750.18547  22716129.94147
  19985766.953 6 105025910.701 6  81838405.27248  19985774.26648
  20929680.266 6 109986208.606 6  85703580.08749  20929690.96549
  23295315.883 5 122417719.284 5  95390480.03146  23295326.59046
  23047569.031 2 121115784.643 2  94375972.89046  23047577.22746
  21366340.180 6 112280875.711 6  87491617.30748  21366351.50048
 22  7  3 14 15 15.0000000  0  6G04G07G09G14G20G30                  
  22718880.406 5 119388520.329 5  93030056.82747  22718891.28547
  19987146.727 6 105033164.659 6  81844057.70548  19987154.89848
  20931075.453 6 109993538.991 6  85709292.06549  20931085.84449
  23292910.477 5 122405075.191 5  95380627.51646  23292920.63346
  23046325.484 2 121109251.339 2  94370881.98546  23046333.76246
  21366132.336 6 112279783.926 6  87490766.57248  21366143.84048
 22  7  3 14 15 20.0000000  0  6G04G07G09G14G20G30                  
  22721643.031 5 119403038.568 5  93041369.72546  22721654.16846
  19988529.617 6 105040430.624 6  81849719.50248  19988537.81348
  20932472.078 6 110000879.040 6  85715011.58649  20932482.62549
  23290505.281 4 122392437.274 4  95370779.82346  23290515.78946
  23045085.219 3 121102731.313 3  94365801.44546  23045093.42246
  21365926.852 6 112278703.153 6  87489924.41548  21365938.05148
 22  7  3 14 15 25.0000000  0  6G04G07G09G14G20G30                  
  22724407.711 5 119417564.864 5  93052688.92246  22724418.56646
  19989914.430 6 105047708.535 6  81855390.59948  19989922.62948
  20933870.477 6 110008228.677 6  85720738.57749  20933881.36349
  23288101.320 4 122379805.616 4  95360936.97146  23288112.22746
  23043846.227 3 121096224.564 3  94360731.22946  23043855.34446
  21365723.023 6 112277633.280 6  87489090.75148  21365734.05948
 22  7  3 14 15 30.0000000  0  6G04G07G09G14G20G30                  
  22727173.250 5 119432099.557 5  93064014.63946  22727184.33646
  19991301.984 6 105054998.782 6  81861071.31248  19991309.94948
  20935271.055 6 110015588.357 6  85726473.39249  20935282.09449
  23285699.344 4 122367180.577 4  95351099.30746  23285710.04746
  23042610.164 3 121089731.431 3  94355671.68146  23042619.45346
  21365521.563 6 112276574.725 6  87488265.90848  21365532.82848
 22  7  3 14 15 35.0000000  0  6G04G07G09G14G20G30                  
  22729941.203 5 119446642.273 5  93075346.62947  22729951.40647
  19992691.336 6 105062300.953 6  81866761.31848  19992699.53548
  20936673.367 6 110022957.679 6  85732215.71749  20936683.99249
  23283297.945 4 122354561.764 4  95341266.48946  23283308.84446
  23041378.391 4 121083251.592 4  94350622.44746  23041386.57046
  21365322.523 6 112275527.115 6  87487449.59048  21365333.19548
 22  7  3 14 15 40.0000000  0  6G04G07G09G14G20G30                  
  22732709.484 5 119461192.776 5  93086684.66946  22732720.09046
  19994083.328 6 105069614.854 6  81872460.45748  19994091.67648
  20938077.672 6 110030336.402 6  85737965.37349  20938088.11349
  23280898.281 4 122341949.004 4  95331438.36746  23280908.59846
  23040146.602 3 121076784.813 3  94345583.38646  23040156.29746
  21365125.000 6 112274490.226 6  87486641.62948  21365136.00448
 22  7  3 14 15 45.0000000  0  6G04G07G09G14G20G30                  
  22735480.289 5 119475751.562 5  93098029.17446  22735490.89546
  19995477.648 6 105076940.919 6  81878169.07448  19995485.67648
  20939483.555 6 110037725.028 6  85743722.74149  20939494.17649
  23278499.633 4 122329342.786 4  95321615.38246  23278509.79346
  23038918.031 4 121070331.506 4  94340554.82346  23038927.99646
  21364929.984 6 112273464.483 6  87485842.35048  21364940.60548
 22  7  3 14 15 50.0000000  0  6G04G07G09G14G20G30                  
  22738252.273 5 119490318.302 5  93109379.86746  22738262.82446
  19996873.391 6 105084278.873 6  81883886.96048  19996882.20748
  20940891.820 6 110045123.235 6  85749487.57449  20940902.20349
  23276101.383 5 122316742.740 5  95311797.17246  23276112.19946
  23037693.008 3 121063891.527 3  94335536.68146  23037702.35546
  21364736.844 6 112272449.618 6  87485051.55648  21364747.97748
 22  7  3 14 15 55.0000000  0  6G04G07G09G14G20G30                  
  22741024.883 5 119504892.727 5  93120736.54647  22741035.93847
  19998272.930 6 105091628.406 6  81889613.86048  19998280.78148
  20942300.984 6 110052530.720 6  85755259.64349  20942311.55949
  23273704.492 5 122304148.660 5  95301983.63946  23273715.54746
  23036471.070 3 121057464.514 3  94330528.63046  23036479.18046
  21364545.422 6 112271445.312 6  87484268.97948  21364556.48448
 22  7  3 14 16  0.0000000  0  6G04G07G09G14G20G30                  
  22743800.453 5 119519475.313 5  93132099.60747  22743811.18447
  19999673.242 6 105098989.962 6  81895350.14148  19999681.62548
  20943712.883 6 110059948.015 6  85761039.35449  20943723.16849
  23271308.758 5 122291561.040 5  95292175.10846  23271320.18046
  23035250.133 3 121051050.894 3  94325530.95546  23035259.21946
  21364356.523 6 112270452.054 6  87483495.01048  21364367.42648
 22  7  3 14 16  5.0000000  0  6G04G07G09G14G20G30                  
  22746576.453 5 119534065.635 5  93143468.67446  22746587.62146
  20001076.422 6 105106363.112 6  81901095.45048  20001084.93448
  20945125.539 6 110067374.639 6  85766826.33149  20945136.23849
  23268914.797 5 122278979.378 5  95282371.23546  23268925.82846
  23034032.633 3 121044650.267 3  94320543.45546  23034041.07446
  21364169.852 6 112269469.383 6  87482729.28848  21364180.40248
 22  7  3 14 16 10.0000000  0  6G04G07G09G14G20G30                  
  22749354.164 5 119548663.568 5  93154843.68446  22749365.16046
  20002481.844 6 105113747.768 6  81906849.73248  20002489.85548
  20946540.547 6 110074810.538 6  85772620.54149  20946551.32049
  23266521.477 5 122266403.676 5  95272571.99746  23266533.18446
  23032816.563 2 121038262.618 2  94315566.08646  23032825.24246
  21363984.969 6 112268497.268 6  87481971.79748  21363995.45748
 22  7  3 14 16 15.0000000  0  6G04G07G09G14G20G30                  
  22752133.742 5 119563269.237 5  93166224.70946  22752144.66446
  20003889.477 6 105121144.029 6  81912613.05248  20003897.84048
  20947957.906 6 110082255.796 6  85778422.04749  20947967.98049
  23264129.555 5 122253834.044 5  95262777.50746  23264141.00446
  23031604.008 3 121031888.002 3  94310598.85446  23031612.18046
  21363801.773 6 112267535.750 6  87481222.55748  21363812.54748
 22  7  3 14 16 20.0000000  0  6G04G07G09G14G20G30                  
  22754915.547 4 119577882.536 4  93177611.69446  22754925.82446
  20005298.234 6 105128551.773 6  81918385.31248  20005306.92648
  20949376.180 6 110089710.338 6  85784230.77949  20949386.74249
  23261739.188 5 122241270.316 5  95252987.60546  23261750.03546
  23030394.531 3 121025526.312 3  94305641.68846  23030401.77346
  21363620.477 6 112266584.722 6  87480481.49548  21363631.47348
 22  7  3 14 16 25.0000000  0  6G04G07G09G14G20G30                  
  22757697.648 5 119592503.829 5  93189004.89146  22757707.74646
  20006710.766 6 105135971.311 6  81924166.77848  20006718.96948
  20950796.523 6 110097174.476 6  85790046.99249  20950806.87949
  23259349.914 5 122228712.926 5  95243202.65546  23259360.61346
  23029185.680 2 121019177.978 2  94300694.94246  23029193.59846
  21363441.438 6 112265644.490 6  87479748.85448  21363452.64548
 22  7  3 14 16 30.0000000  0  6G04G07G09G14G20G30                  
  22760481.227 5 119607133.209 5  93200404.40546  22760491.70346
  20008124.805 6 105143402.800 6  81929957.54648  20008133.23448
  20952219.055 6 110104648.372 6  85795870.81149  20952229.21149
  23256961.070 5 122216161.949 5  95233422.68846  23256971.84846
  23027979.977 2 121012843.082 2  94295758.63746  23027987.72346
  21363264.898 6 112264715.276 6  87479024.78748  21363276.07848
 22  7  3 14 16 35.0000000  0  6G04G07G09G14G20G30                  
  22763266.563 5 119621770.066 5  93211809.73946  22763277.15246
  20009541.227 6 105150845.590 6  81935757.12648  20009549.56648
  20953642.977 6 110112131.413 6  85801701.74649  20953653.48049
  23254573.766 5 122203616.825 5  95223647.27747  23254584.31347
  23026777.094 2 121006521.025 2  94290832.36146  23026784.95746
  21363089.805 6 112263796.384 6  87478308.77048  21363101.22748
 22  7  3 14 16 40.0000000  0  6G04G07G09G14G20G30                  
  22766053.211 5 119636414.635 5  93223221.08046  22766063.67246
  20010959.570 6 105158299.833 6  81941565.63348  20010967.83648
  20955068.344 6 110119623.780 6  85807539.95249  20955078.87549
  23252187.320 5 122191077.740 5  95213876.59246  23252198.66446
  23025577.133 2 121000212.005 2  94285916.21246  23025584.21146
  21362917.406 6 112262888.054 6  87477600.98148  21362928.44548
 22  7  3 14 16 45.0000000  0  6G04G07G09G14G20G30                  
  22768841.398 5 119651067.026 5  93234638.53146  22768851.80146
  20012380.148 6 105165765.729 6  81947383.21548  20012388.64848
  20956495.836 6 110127125.647 6  85813385.57249  20956506.40249
  23249802.234 5 122178544.896 5  95204110.75646  23249813.44946
  23024378.500 2 120993916.190 2  94281010.40045  23024386.10245
  21362746.305 6 112261990.379 6  87476901.49548  21362757.47748
 22  7  3 14 16 50.0000000  0  6G04G07G09G14G20G30                  
  22771631.734 5 119665726.926 5  93246061.82846  22771641.09846
  20013803.289 6 105173242.910 6  81953209.59448  20013811.25848
  20957925.172 6 110134636.627 6  85819238.27849  20957935.88349
  23247418.180 5 122166017.924 5  95194349.49647  23247429.61347
  23023183.484 2 120987633.241 2  94276114.58745  23023190.74245
  21362577.250 6 112261103.046 6  87476210.07048  21362588.19548
 22  7  3 14 16 55.0000000  0  6G04G07G09G14G20G30                  
  22774422.883 5 119680394.507 5  93257491.10746  22774432.36346
  20015228.070 6 105180731.553 6  81959044.88748  20015236.18048
  20959356.383 6 110142157.001 6  85825098.30849  20959367.16849
  23245035.961 5 122153496.990 5  95184592.95347  23245047.19147
  23021989.852 2 120981363.376 2  94271228.98946  23021997.80146
  21362410.203 6 112260226.278 6  87475526.87148  21362421.73448
 22  7  3 14 17  0.0000000  0  6G04G07G09G14G20G30                  
  22777215.484 5 119695069.602 5  93268926.24646  22777225.70746
  20016655.586 6 105188231.541 6  81964889.03648  20016663.75448
  20960789.195 6 110149686.569 6  85830965.50449  20960799.71949
  23242654.695 5 122140982.038 5  95174841.05446  23242665.66046
  23020799.172 2 120975106.392 2  94266353.40045  23020806.57445
  21362245.742 6 112259359.881 6  87474851.75548  21362256.71148
 22  7  3 14 17  5.0000000  0  6G04G07G09G14G20G30                  
  22780009.938 5 119709752.189 5  93280367.22647  22780019.61747
  20018084.641 6 105195742.729 6  81970741.91848  20018092.43448
  20962223.875 6 110157225.265 6  85836839.80949  20962234.17249
  23240274.500 5 122128472.960 5  95165093.73547  23240285.32447
  23019610.117 2 120968862.264 2  94261487.84545  23019618.54745
  21362082.180 6 112258503.767 6  87474184.64948  21362093.96548
 22  7  3 14 17 10.0000000  0  6G04G07G09G14G20G30                  
  22782804.750 5 119724442.249 5  93291814.01446  22782815.15646
  20019516.055 6 105203265.173 6  81976603.55448  20019523.94548
  20963659.797 6 110164773.109 6  85842721.25149  20963670.63349
  23237894.766 5 122115969.818 5  95155351.04147  23237905.85947
  23018424.070 2 120962631.063 2  94256632.35445  23018432.39845
  21361921.344 6 112257657.963 6  87473525.58248  21361932.87548
 22  7  3 14 17 15.0000000  0  6G04G07G09G14G20G30                  
  22785601.156 5 119739140.152 5  93303266.92246  22785612.26246
  20020949.992 6 105210799.197 6  81982474.22148  20020957.78548
  20965098.086 6 110172330.469 6  85848610.10549  20965108.55949
  23235516.969 5 122103472.926 5  95145613.23447  23235528.25047
  23017241.281 2 120956413.146 2  94251787.23145  23017249.20745
  21361762.977 6 112256822.813 6  87472874.81548  21361773.91448
 22  7  3 14 17 20.0000000  0  6G04G07G09G14G20G30                  
  22788399.219 5 119753845.397 5  93314725.54446  22788409.55146
  20022385.844 6 105218344.307 6  81988353.53748  20022393.35548
  20966538.266 6 110179896.828 6  85854505.96649  20966548.63349
  23233139.930 5 122090981.839 5  95135879.93347  23233151.31347
  23016060.367 3 120950207.996 3  94246952.02145  23016068.56645
  21361606.180 6 112255997.849 6  87472231.99748  21361616.78948
 22  7  3 14 17 25.0000000  0  6G04G07G09G14G20G30                  
  22791199.500 5 119768557.882 5  93326189.81046  22791209.75446
  20023823.469 6 105225900.420 6  81994241.41448  20023831.36748
  20967979.766 6 110187472.128 6  85860408.80649  20967990.06649
  23230764.086 5 122078496.404 5  95126151.02847  23230775.49647
  23014882.313 3 120944015.501 3  94242126.72346  23014890.07846
  21361451.055 6 112255182.951 6  87471597.01148  21361461.96148
 22  7  3 14 17 30.0000000  0  6G04G07G09G14G20G30                  
  22794001.023 5 119783277.840 5  93337659.91846  22794010.64846
  20025263.523 6 105233467.733 6  82000138.01748  20025271.34848
  20969422.773 6 110195056.577 6  85866318.76249  20969433.42649
  23228389.320 5 122066016.980 5  95116426.81947  23228400.86347
  23013705.961 3 120937835.923 3  94237311.43546  23013714.46946
  21361297.664 6 112254378.326 6  87470970.02548  21361308.60248
 22  7  3 14 17 35.0000000  0  6G04G07G09G14G20G30                  
  22796802.898 5 119798005.676 5  93349136.15346  22796813.09046
  20026705.695 6 105241046.668 6  82006043.67148  20026713.70748
  20970868.188 6 110202650.616 6  85872236.19049  20970878.25449
  23226016.055 6 122053543.920 6  95106707.56447  23226027.44947
  23012533.016 3 120931669.686 3  94232506.56246  23012541.19946
  21361146.773 6 112253584.424 6  87470351.40848  21361157.85248
 22  7  3 14 17 40.0000000  0  6G04G07G09G14G20G30                  
  22799607.148 5 119812740.908 5  93360618.13746  22799617.41046
  20028150.172 6 105248636.675 6  82011957.96948  20028157.89548
  20972314.742 6 110210253.722 6  85878160.68949  20972325.39849
  23223643.391 5 122041076.703 5  95096992.86547  23223655.60247
  23011361.898 3 120925516.275 3  94227711.73046  23011370.31346
  21360997.297 6 112252800.697 6  87469740.70948  21361008.32448
 22  7  3 14 17 45.0000000  0  6G04G07G09G14G20G30                  
  22802412.531 5 119827483.906 5  93372106.18446  22802422.92646
  20029596.484 6 105256238.259 6  82017881.28748  20029604.29348
  20973763.266 6 110217866.282 6  85884092.55749  20973773.84449
  23221272.086 6 122028615.765 6  95087283.05147  23221283.91047
  23010192.805 3 120919376.141 3  94222927.20846  23010202.36746
  21360850.656 6 112252027.530 6  87469138.23748  21360861.66848
 22  7  3 14 17 50.0000000  0  6G04G07G09G14G20G30                  
  22805219.750 5 119842234.549 5  93383600.19646  22805229.69546
  20031045.117 6 105263851.192 6  82023813.43848  20031053.25048
  20975214.234 6 110225488.200 6  85890031.71949  20975224.08649
  23218901.547 6 122016161.013 6  95077578.06347  23218914.06647
  23009028.281 4 120913249.084 4  94218152.87446  23009036.65646
  21360704.703 6 112251264.795 6  87468543.89548  21360716.34448
 22  7  3 14 17 55.0000000  0  6G04G07G09G14G20G30                  
  22808028.031 5 119856992.560 5  93395099.93846  22808038.49646
  20032496.336 6 105271475.129 6  82029754.16848  20032503.95348
  20976666.391 6 110233119.134 6  85895977.89949  20976676.16449
  23216532.938 6 122003712.120 6  95067877.63647  23216544.82447
  23007863.336 4 120907134.809 4  94213388.52146  23007873.20346
  21360561.992 6 112250512.249 6  87467957.49248  21360573.18048
 22  7  3 14 18  0.0000000  0  6G04G07G09G14G20G30                  
  22810837.680 5 119871757.526 5  93406605.09546  22810848.07446
  20033948.914 6 105279109.705 6  82035703.18548  20033956.80548
  20978119.711 6 110240758.748 6  85901930.84549  20978130.39549
  23214165.281 6 121991268.724 6  95058181.50047  23214176.85547
  23006702.578 4 120901033.005 4  94208633.84246  23006711.96146
  21360421.031 6 112249769.413 6  87467378.66048  21360431.69148
 22  7  3 14 18  5.0000000  0  6G04G07G09G14G20G30                  
  22813648.883 5 119886529.523 5  93418115.74946  22813659.50846
  20035404.016 6 105286755.017 6  82041660.58348  20035412.07448
  20979575.141 6 110248407.123 6  85907890.62249  20979585.52049
  23211797.930 6 121978830.933 6  95048489.72947  23211809.73847
  23005544.641 4 120894943.759 4  94203888.99046  23005553.64546
  21360281.492 6 112249036.404 6  87466807.48748  21360292.26248
 22  7  3 14 18 10.0000000  0  6G04G07G09G14G20G30                  
  22816461.047 5 119901308.945 5  93429632.18647  22816472.03147
  20036861.055 6 105294411.342 6  82047626.52848  20036868.48848
  20981032.297 6 110256064.625 6  85913857.50849  20981042.59449
  23209432.508 6 121966399.104 6  95038802.60347  23209444.05947
  23004388.250 4 120888867.492 4  94199154.23846  23004397.77746
  21360144.063 6 112248313.647 6  87466244.31048  21360155.05948
 22  7  3 14 18 15.0000000  0  6G04G07G09G14G20G30                  
  22819275.695 5 119916095.594 5  93441154.23547  22819285.84847
  20038319.813 6 105302078.535 6  82053600.96648  20038327.35248
  20982491.273 6 110263731.061 6  85919831.35949  20982501.67649
  23207068.523 6 121953973.089 6  95029120.00547  23207079.71947
  23003234.516 4 120882803.913 4  94194429.38146  23003243.88746
  21360008.000 6 112247600.852 6  87465688.88148  21360018.81348
 22  7  3 14 18 20.0000000  0  6G04G07G09G14G20G30                  
  22822090.922 5 119930889.735 5  93452682.12346  22822101.51246
  20039780.891 6 105309756.832 6  82059584.07748  20039788.75048
  20983952.117 6 110271406.683 6  85925812.36449  20983962.26249
  23204704.266 6 121941553.136 6  95019442.14147  23204715.80147
  23002083.484 4 120876753.304 4  94189714.60446  23002092.23046
  21359874.344 6 112246898.345 6  87465141.47548  21359885.39548
 22  7  3 14 18 25.0000000  0  6G04G07G09G14G20G30                  
  22824906.977 5 119945691.033 5  93464215.61147  22824917.65647
  20041244.359 6 105317445.960 6  82065575.59948  20041251.84048
  20985414.031 6 110279091.193 6  85931800.29049  20985424.43449
  23202342.625 6 121929138.896 6  95009768.71847  23202353.46147
  23000934.594 4 120870715.429 4  94185009.77846  23000943.10246
  21359742.609 6 112246205.711 6  87464601.75948  21359753.93048
 22  7  3 14 18 30.0000000  0  6G04G07G09G14G20G30                  
  22827724.992 5 119960499.522 5  93475754.69246  22827735.85546
  20042708.867 6 105325145.907 6  82071575.54748  20042717.00448
