     2.11           OBSERVATION DATA    GPS(GPS)            RINEX VERSION / TYPE
cnvtToRINEX 3.14.0  convertToRINEX OPR  20220810 190506 UTC PGM / RUN BY / DATE 
----------------------------------------------------------- COMMENT             
RS-HV-207                                                   MARKER NAME         
RS-HV-207                                                   MARKER NUMBER       
GNSS Observer       Trimble                                 OBSERVER / AGENCY   
4906165579          TRIMBLE 5700II      4.02                REC # / TYPE / VERS 
60266723            TRM39105.00                             ANT # / TYPE        
  3578256.2054 -4253145.7411 -3118040.9867                  APPROX POSITION XYZ 
        1.5300        0.0000        0.0000                  ANTENNA: DELTA H/E/N
     1     1     0                                          WAVELENGTH FACT L1/2
     4    C1    L1    L2    P2                              # / TYPES OF OBSERV 
  2022     7     3    12     5   25.0000000     GPS         TIME OF FIRST OBS   
  2022     7     3    12    53   40.0000000     GPS         TIME OF LAST OBS    
     0                                                      RCV CLOCK OFFS APPL 
    18                                                      LEAP SECONDS        
     9                                                      # OF SATELLITES     
   G01   135   135   135   135                              PRN / # OF OBS      
   G03   580   580   580   580                              PRN / # OF OBS      
   G04   580   580   580   580                              PRN / # OF OBS      
   G06   274   246   101   102                              PRN / # OF OBS      
   G07   580   580   580   580                              PRN / # OF OBS      
   G09   565   565   565   565                              PRN / # OF OBS      
   G16   575   575   575   575                              PRN / # OF OBS      
   G26   356   355   355   356                              PRN / # OF OBS      
   G30   236   236   236   236                              PRN / # OF OBS      
CARRIER PHASE MEASUREMENTS: PHASE SHIFTS REMOVED            COMMENT             
                                                            END OF HEADER       
 22  7  3 12  5 25.0000000  0  3G03G04G07                           
  20555336.813 6 108019020.47016  84170711.33758  20555348.08648
  20982877.938 6 110265764.14516  85921412.22258  20982886.75848
  22081242.734 6 116037712.93316  90419029.70757  22081250.92247
 22  7  3 12  5 30.0000000  0  3G03G04G07                           
  20557125.602 6 108028419.199 6  84178035.02148  20557136.64548
  20984384.359 6 110273684.614 6  85927584.02047  20984393.87147
  22079095.555 6 116026430.042 6  90410237.84947  22079103.99647
 22  7  3 12  5 35.0000000  0  3G03G04G07                           
  20558918.125 6 108037841.756 6  84185377.25848  20558929.10248
  20985894.578 6 110281619.531 6  85933767.07647  20985903.83647
  22076952.211 6 116015167.094 6  90401461.54447  22076960.94147
 22  7  3 12  5 40.0000000  0  3G03G04G07                           
  20560715.969 6 108047287.632 6  84192737.68048  20560726.80548
  20987407.055 6 110289568.364 6  85939960.96547  20987416.89547
  22074813.164 6 116003923.707 6  90392700.46047  22074821.38347
 22  7  3 12  5 45.0000000  0  3G03G04G07                           
  20562517.445 6 108056756.427 6  84200115.95448  20562528.92648
  20988922.664 6 110297530.677 6  85946165.35947  20988931.96947
  22072677.070 6 115992699.345 6  90383954.20247  22072685.49647
 22  7  3 12  5 50.0000000  0  6G01G03G04G07G16G26                  
  23163499.594 3 121724798.65113  94850700.63056  23163510.60546
  20564323.898 6 108066248.451 6  84207512.33348  20564334.64548
  20990439.984 6 110305506.847 6  85952380.54248  20990449.70348
  22070545.078 6 115981494.487 6  90375223.13647  22070553.16847
  23268963.367 4 122279305.82714  95282544.55756  23268971.62946
  23625476.195 3 124152596.22613  96742415.91557  23625486.23847
 22  7  3 12  5 55.0000000  0  6G01G03G04G07G16G26                  
  23167765.211 3 121747213.614 3  94868166.85946  23167776.38346
  20566134.578 6 108075763.357 6  84214926.53448  20566145.69548
  20991960.344 6 110313496.457 6  85958606.21548  20991970.10548
  22068415.938 6 115970308.675 6  90366506.92147  22068424.18447
  23269220.250 4 122280650.724 4  95283592.52546  23269228.03946
  23627399.000 2 124162703.906 2  96750292.03647  23627410.14847
 22  7  3 12  6  0.0000000  0  6G01G03G04G07G16G26                  
  23172033.047 3 121769641.039 3  94885642.75446  23172044.05546
  20567949.617 6 108085301.322 6  84222358.71348  20567960.11748
  20993483.750 6 110321499.718 6  85964842.52148  20993492.96548
  22066291.305 6 115959142.117 6  90357805.71347  22066298.94947
  23269478.930 4 122282017.848 4  95284657.80446  23269487.97746
  23629328.047 3 124172835.139 3  96758186.50147  23629337.96147
 22  7  3 12  6  5.0000000  0  6G01G03G04G07G16G26                  
  23176302.305 2 121792079.910 2  94903127.56246  23176314.65646
  20569768.703 6 108094861.603 6  84229808.27448  20569779.09448
  20995008.688 6 110329515.876 6  85971088.86148  20995018.32448
  22064170.281 6 115947994.035 6  90349118.90547  22064177.81647
  23269743.023 4 122283406.375 4  95285739.76246  23269751.96946
  23631260.117 4 124182989.061 4  96766098.63548  23631270.64148
 22  7  3 12  6 10.0000000  0  6G01G03G04G07G16G26                  
  23180574.883 3 121814530.098 3  94920621.20546  23180586.81646
  20571591.984 6 108104443.779 6  84237274.89748  20571603.19548
  20996536.617 6 110337544.505 6  85977344.94847  20996545.82847
  22062051.758 6 115936864.094 6  90340446.20947  22062059.88747
  23270011.758 4 122284816.021 4  95286838.20646  23270020.62146
  23633196.000 4 124193165.342 4  96774028.20248  23633207.54348
 22  7  3 12  6 15.0000000  0  6G01G03G04G07G16G26                  
  23184848.930 2 121836991.023 2  94938123.19646  23184860.91446
  20573419.805 6 108114047.570 6  84244758.36648  20573430.26648
  20998066.273 6 110345585.317 6  85983610.51247  20998075.53547
  22059936.844 6 115925752.005 6  90331787.45047  22059944.99647
  23270284.156 5 122286246.479 5  95287952.85846  23270292.70746
  23635136.359 5 124203363.715 5  96781974.99648  23635147.71548
 22  7  3 12  6 20.0000000  0  6G01G03G04G07G16G26                  
  23189124.836 3 121859462.305 3  94955633.25246  23189137.32046
  20575251.289 6 108123672.544 6  84252258.34648  20575262.09448
  20999598.898 6 110353637.862 6  85989885.22547  20999607.83647
  22057826.023 6 115914657.319 6  90323142.21747  22057833.45747
  23270560.781 5 122287697.330 5  95289083.38146  23270569.21146
  23637081.109 3 124213583.627 3  96789938.57548  23637093.07848
 22  7  3 12  6 25.0000000  0  6G01G03G04G07G16G26                  
  23193403.883 2 121881944.284 2  94973151.66046  23193415.63346
  20577087.234 7 108133318.915 7  84259774.99948  20577097.69548
  21001133.109 6 110361702.397 6  85996169.28147  21001142.64847
  22055718.008 6 115903580.284 6  90314510.75847  22055725.85247
  23270840.508 5 122289168.750 5  95290229.95246  23270849.48046
  23639029.500 4 124223825.440 4  96797919.20948  23639041.46148
 22  7  3 12  6 30.0000000  0  6G01G03G04G07G16G26                  
  23197683.156 3 121904435.796 3  94990677.49446  23197695.71546
  20578926.516 6 108142985.663 6  84267307.52948  20578937.03548
  21002670.039 6 110369777.884 6  86002461.85447  21002679.28147
  22053613.047 6 115892519.838 6  90305892.24447  22053621.52347
  23271123.883 4 122290659.705 4  95291391.73646  23271132.48446
  23640983.156 4 124234088.048 4  96805916.03748  23640994.89148
 22  7  3 12  6 35.0000000  0  6G01G03G04G07G16G26                  
  23201965.055 2 121926937.181 2  95008210.98146  23201977.36346
  20580770.172 6 108152673.116 6  84274856.19048  20580780.66448
  21004209.305 6 110377864.606 6  86008763.19547  21004217.96947
  22051512.109 6 115881476.354 6  90297286.91447  22051519.68047
  23271411.344 4 122292170.614 4  95292569.08046  23271420.39146
  23642939.047 4 124244371.774 4  96813929.33147  23642951.57447
 22  7  3 12  6 40.0000000  0  7G01G03G04G07G09G16G26               
  23206249.492 2 121949448.011 2  95025751.89946  23206261.16046
  20582617.406 6 108162380.835 6  84282420.64748  20582628.00048
  21005749.914 6 110385962.147 6  86015072.96447  21005759.32447
  22049413.055 6 115870449.417 6  90288694.49847  22049421.62147
  21443539.188 6 112686506.74416  87807709.12658  21443549.48048
  23271702.891 3 122293701.021 3  95293761.58446  23271711.91446
  23644900.438 4 124254676.205 4  96821958.74048  23644912.37548
 22  7  3 12  6 45.0000000  0  7G01G03G04G07G09G16G26               
  23210533.344 2 121971967.718 2  95043299.67045  23210546.41045
  20584469.039 6 108172108.328 6  84290000.50448  20584478.93848
  21007292.922 6 110394070.036 6  86021390.80147  21007301.94947
  22047317.547 6 115859438.479 6  90280114.55447  22047326.66447
  21443617.688 6 112686918.844 6  87808030.23448  21443627.37148
  23271996.750 3 122295250.458 3  95294968.92846  23272006.58246
  23646863.781 4 124265000.791 4  96830003.86648  23646877.73848
 22  7  3 12  6 50.0000000  0  7G01G03G04G07G09G16G26               
  23214820.484 2 121994496.194 2  95060854.32746  23214833.58646
  20586323.500 6 108181855.513 6  84297595.70948  20586333.56348
  21008837.594 6 110402188.156 6  86027716.59647  21008847.19547
  22045225.328 6 115848443.544 6  90271547.06247  22045234.10247
  21443698.250 6 112687341.039 6  87808359.21848  21443707.69948
  23272296.031 4 122296818.752 4  95296190.99146  23272305.26246
  23648832.313 4 124275345.463 4  96838064.64648  23648846.69148
 22  7  3 12  6 55.0000000  0  7G01G03G04G07G09G16G26               
  23219108.594 1 122017033.257 1  95078415.63946  23219122.14546
  20588182.313 7 108191622.054 7  84305205.99348  20588192.30148
  21010384.148 6 110410316.177 6  86034050.11647  21010393.28147
  22043136.523 6 115837464.220 6  90262991.75847  22043145.00847
  21443779.813 6 112687772.929 6  87808695.75048  21443790.11748
  23272598.156 3 122298405.693 3  95297427.56546  23272606.89546
  23650805.086 3 124285709.957 3  96846140.87448  23650818.42648
 22  7  3 12  7  0.0000000  0  7G01G03G04G07G09G16G26               
  23223400.148 2 122039578.602 2  95095983.39345  23223412.44945
  20590044.781 6 108201407.899 6  84312831.32148  20590054.32448
  21011932.922 6 110418454.018 6  86040391.28947  21011942.37547
  22041050.453 6 115826500.472 6  90254448.58147  22041058.44547
  21443864.273 6 112688214.480 6  87809039.82148  21443874.48448
  23272902.680 2 122300011.144 2  95298678.55546  23272911.98046
  23652781.516 2 124296094.091 2  96854232.38147  23652794.25447
 22  7  3 12  7  5.0000000  0  7G01G03G04G07G09G16G26               
  23227692.188 2 122062131.934 2  95113557.39845  23227704.65645
  20591910.609 6 108211212.654 6  84320471.38648  20591920.17248
  21013483.555 6 110426601.344 6  86046739.83047  21013492.60947
  22038966.500 6 115815551.926 6  90245917.26247  22038975.09047
  21443950.391 6 112688665.340 6  87809391.12148  21443960.00048
  23273212.234 3 122301634.750 3  95299943.71446  23273221.53546
  23654762.461 3 124306497.585 3  96862338.98148  23654773.70748
 22  7  3 12  7 10.0000000  0  7G01G03G04G07G09G16G26               
  23231984.570 1 122084692.686 1  95131137.20445  23231997.36745
  20593779.273 7 108221035.724 7  84328125.72648  20593789.47748
  21015035.828 6 110434757.514 6  86053095.29447  21015044.80547
  22036885.758 6 115804618.007 6  90237397.32047  22036895.09847
  21444037.352 6 112689124.862 6  87809749.19848  21444046.96548
  23273523.875 3 122303275.928 3  95301222.57446  23273533.57846
  23656745.031 4 124316919.750 4  96870460.15148  23656757.04348
 22  7  3 12  7 15.0000000  0  7G01G03G04G07G09G16G26               
  23236279.211 3 122107261.192 3  95148723.05146  23236291.61346
  20595652.102 7 108230877.627 7  84335794.72848  20595662.63348
  21016589.266 6 110442923.025 6  86059458.02147  21016598.47347
  22034808.758 6 115793699.226 6  90228889.17847  22034816.64847
  21444126.172 6 112689593.572 6  87810114.40748  21444136.19548
  23273839.773 3 122304935.139 3  95302515.46346  23273849.88746
  23658731.344 5 124327361.127 5  96878596.28648  23658743.51248
 22  7  3 12  7 20.0000000  0  7G01G03G04G07G09G16G26               
  23240575.063 2 122129837.529 2  95166314.94646  23240588.40246
  20597528.180 7 108240738.187 7  84343478.27448  20597538.55948
  21018144.703 6 110451097.754 6  86065827.93847  21018154.25847
  22032733.289 6 115782795.442 6  90220392.72047  22032741.92247
  21444217.672 6 112690071.291 6  87810486.65948  21444227.56648
  23274158.906 4 122306612.331 4  95303822.35446  23274168.54746
  23660722.766 4 124337821.528 4  96886747.24448  23660734.25448
 22  7  3 12  7 25.0000000  0  7G01G03G04G07G09G16G26               
  23244873.672 3 122152421.419 3  95183912.79746  23244885.96146
  20599408.039 7 108250617.366 7  84351176.32748  20599418.78148
  21019702.141 6 110459281.587 6  86072204.94747  21019711.18447
  22030661.664 6 115771906.561 6  90211907.87647  22030669.70347
  21444309.836 6 112690557.965 6  87810865.87548  21444319.92648
  23274481.781 4 122308307.363 4  95305143.17046  23274491.08646
  23662716.219 5 124348300.929 5  96894913.01848  23662728.79348
 22  7  3 12  7 30.0000000  0  7G01G03G04G07G09G16G26               
  23249171.391 3 122175012.028 3  95201515.85146  23249184.98846
  20601291.992 6 108260514.307 6  84358888.22948  20601302.14148
  21021261.594 6 110467473.751 6  86078588.45447  21021270.41047
  22028592.086 6 115761031.813 6  90203434.03947  22028600.32847
  21444404.445 6 112691052.760 6  87811251.43248  21444414.14148
  23274806.828 3 122310019.432 3  95306477.26046  23274816.82846
  23664713.859 4 124358798.509 4  96903092.96248  23664725.93848
 22  7  3 12  7 35.0000000  0  7G01G03G04G07G09G16G26               
  23253472.047 3 122197609.866 3  95219124.52446  23253485.14846
  20603178.375 7 108270429.442 7  84366614.30448  20603188.98848
  21022822.336 6 110475674.624 6  86084978.73447  21022830.85547
  22026525.117 6 115750171.564 6  90194971.50247  22026533.33647
  21444499.938 6 112691556.093 6  87811643.63548  21444510.10548
  23275136.477 3 122311749.026 3  95307825.00646  23275145.61346
  23666715.344 3 124369314.645 3  96911287.34948  23666727.59048
 22  7  3 12  7 40.0000000  0  7G01G03G04G07G09G16G26               
  23257774.047 3 122220214.356 3  95236738.39046  23257787.16846
  20605068.703 6 108280362.332 6  84374354.20648  20605079.36748
  21024383.266 6 110483883.768 6  86091375.46647  21024392.63347
  22024461.352 6 115739325.412 6  90186519.95047  22024469.56647
  21444597.203 6 112692067.525 6  87812042.15448  21444607.21148
  23275469.844 3 122313495.554 3  95309185.93646  23275477.90246
  23668720.211 3 124379848.885 3  96919495.84848  23668731.79748
 22  7  3 12  7 45.0000000  0  7G01G03G04G07G09G16G26               
  23262077.273 3 122242825.661 3  95254357.59346  23262089.41446
  20606962.289 7 108290313.066 7  84382108.03348  20606972.89548
  21025947.938 6 110492101.255 6  86097778.69447  21025956.89847
  22022400.555 6 115728493.468 6  90178079.47447  22022408.36347
  21444696.438 6 112692587.151 6  87812447.04548  21444706.16848
  23275805.750 4 122315259.244 4  95310560.25246  23275814.07846
  23670728.141 4 124390401.335 4  96927718.53147  23670739.52347
 22  7  3 12  7 50.0000000  0  7G01G03G04G07G09G16G26               
  23266380.617 2 122265443.701 2  95271982.00246  23266393.86746
  20608858.977 6 108300281.615 6  84389875.72748  20608869.62548
  21027512.828 6 110500327.080 6  86104188.42747  21027521.87147
  22020341.336 6 115717675.636 6  90169649.98847  22020350.12547
  21444796.570 6 112693114.930 6  87812858.30048  21444806.61348
  23276144.453 4 122317040.081 4  95311947.90746  23276152.80146
  23672739.313 4 124400971.960 4  96935955.39848  23672750.90248
 22  7  3 12  7 55.0000000  0  7G01G03G04G07G09G16G26               
  23270686.195 2 122288068.163 2  95289611.43346  23270699.62946
  20610759.172 6 108310267.657 6  84397657.05448  20610769.77348
  21029079.922 6 110508560.892 6  86110604.37447  21029088.67647
  22018285.633 6 115706871.700 6  90161231.34647  22018294.26647
  21444898.617 6 112693650.496 6  87813275.61248  21444908.67648
  23276486.305 4 122318837.701 4  95313348.65046  23276494.85546
  23674754.008 4 124411560.358 4  96944206.10148  23674765.95748
 22  7  3 12  8  0.0000000  0  7G01G03G04G07G09G16G26               
  23274992.086 2 122310699.225 2  95307246.01346  23275005.85946
  20612663.188 6 108320271.417 6  84405452.18848  20612673.54348
  21030648.500 6 110516802.959 6  86117026.75847  21030657.21147
  22016232.375 6 115696081.864 6  90152823.69647  22016241.00047
  21445001.672 6 112694194.174 6  87813699.24848  21445012.27348
  23276831.406 4 122320652.300 4  95314762.63646  23276839.77746
  23676772.680 3 124422166.911 3  96952470.94447  23676785.02347
 22  7  3 12  8  5.0000000  0  7G01G03G04G07G09G16G26               
  23279300.484 2 122333336.820 2  95324885.68546  23279314.21946
  20614569.805 6 108330292.857 6  84413261.09748  20614580.20348
  21032218.516 6 110525053.185 6  86123455.50547  21032226.94947
  22014181.961 6 115685306.069 6  90144426.97247  22014190.00447
  21445107.141 6 112694745.792 6  87814129.09048  21445117.11348
  23277179.648 3 122322483.930 3  95316189.88546  23277188.84046
  23678794.648 3 124432791.467 3  96960749.79848  23678806.81348
 22  7  3 12  8 10.0000000  0  7G01G03G04G07G09G16G26               
  23283608.773 2 122355980.830 2  95342530.32646  23283623.02046
  20616480.180 6 108340331.769 6  84421083.63448  20616491.22348
  21033789.945 6 110533311.397 6  86129890.47447  21033798.68447
  22012134.125 6 115674544.162 6  90136041.04647  22012142.16047
  21445213.719 6 112695305.268 6  87814565.03648  21445223.60548
  23277531.414 4 122324332.313 4  95317630.18946  23277539.84046
  23680820.297 3 124443433.894 3  96969042.60448  23680832.10548
 22  7  3 12  8 15.0000000  0  7G01G03G04G07G09G16G26               
  23287919.641 2 122378630.642 2  95360179.54246  23287933.01246
  20618394.234 6 108350387.689 6  84428919.40248  20618404.41448
  21035363.297 6 110541577.076 6  86136331.25347  21035371.56647
  22010087.844 6 115663795.636 6  90127665.59147  22010096.73847
  21445321.172 6 112695872.065 6  87815006.68948  21445331.52048
  23277886.156 4 122326197.013 4  95319083.18946  23277895.25046
  23682848.422 4 124454093.639 4  96977348.88748  23682860.40248
 22  7  3 12  8 20.0000000  0  7G01G03G04G07G09G16G26               
  23292230.922 2 122401286.506 2  95377833.44046  23292244.39146
  20620310.914 6 108360460.889 6  84436768.64948  20620321.32448
  21036937.680 6 110549850.533 6  86142778.11247  21036945.66847
  22008045.516 6 115653060.767 6  90119300.77147  22008053.89547
  21445430.602 6 112696446.411 6  87815454.21448  21445440.69548
  23278245.148 4 122328078.324 4  95320549.16946  23278253.19146
  23684880.039 5 124464770.904 5  96985668.82448  23684891.97348
 22  7  3 12  8 25.0000000  0  7G01G03G04G07G09G16G26               
  23296543.063 3 122423948.267 3  95395491.92546  23296556.89846
  20622231.078 6 108370551.091 6  84444631.14448  20622241.56648
  21038513.148 6 110558131.515 6  86149230.81347  21038521.73847
  22006005.859 6 115642339.383 6  90110946.42647  22006013.84447
  21445541.344 6 112697028.139 6  87815907.49648  21445551.75848
  23278606.344 4 122329976.007 4  95322027.87346  23278614.27346
  23686915.266 5 124475465.560 5  96994002.33948  23686926.91048
 22  7  3 12  8 30.0000000  0  7G01G03G04G07G09G16G26               
  23300856.648 2 122446615.541 2  95413154.71646  23300869.89546
  20624154.289 6 108380658.011 6  84452506.66048  20624164.53948
  21040090.219 6 110566419.708 6  86155689.14647  21040099.01647
  22003967.695 6 115631631.073 6  90102602.28147  22003975.66447
  21445653.180 6 112697616.894 6  87816366.26348  21445663.89848
  23278969.852 5 122331889.701 5  95323519.07946  23278979.14146
  23688953.391 4 124486177.231 4  97002349.10548  23688965.24248
 22  7  3 12  8 35.0000000  0  7G01G03G04G07G09G16G26               
  23305171.578 3 122469288.906 3  95430822.23446  23305185.30946
  20626080.672 6 108390782.276 6  84460395.69348  20626091.43848
  21041669.336 6 110574715.732 6  86162153.58147  21041677.74247
  22001932.797 6 115620936.550 6  90094268.89447  22001940.77347
  21445766.719 6 112698213.307 6  87816830.99648  21445777.43448
  23279338.516 4 122333820.087 4  95325023.28046  23279346.09846
  23690996.289 4 124496906.580 4  97010709.62148  23691007.35248
 22  7  3 12  8 40.0000000  0  7G01G03G04G07G09G16G26               
  23309487.852 2 122491968.055 2  95448494.27446  23309500.82846
  20628010.992 6 108400923.507 6  84468297.95948  20628021.27748
  21043249.023 6 110583019.179 6  86168623.79147  21043257.24247
  21999900.078 6 115610255.426 6  90085945.93647  21999907.84047
  21445881.523 6 112698816.993 6  87817301.39548  21445892.15248
  23279707.563 4 122335766.764 4  95326540.14446  23279716.44546
  23693040.195 4 124507653.226 4  97019083.61647  23693052.30547
 22  7  3 12  8 45.0000000  0  7G01G03G04G07G09G16G26               
  23313804.750 2 122514652.707 2  95466170.59946  23313817.55946
  20629943.742 6 108411081.553 6  84476213.31448  20629954.23448
  21044830.344 6 110591329.940 6  86175099.70847  21044839.36747
  21997870.211 6 115599587.576 6  90077633.31647  21997878.15647
  21445998.227 6 112699427.816 6  87817777.35648  21446008.68448
  23280082.422 5 122337729.600 5  95328069.64446  23280090.14546
  23695088.750 4 124518416.958 4  97027470.93247  23695100.56347
 22  7  3 12  8 50.0000000  0  7G01G03G04G07G09G16G26               
  23318121.945 2 122537343.469 2  95483851.72946  23318135.51246
  20631880.414 7 108421256.922 7  84484142.17148  20631890.35548
  21046413.453 6 110599648.503 6  86181581.70447  21046422.31647
  21995842.000 6 115588933.501 6  90069331.43847  21995850.87947
  21446115.711 6 112700046.245 6  87818259.24948  21446126.16448
  23280458.234 5 122339709.139 5  95329612.14146  23280466.48446
  23697139.219 4 124529198.367 4  97035872.00947  23697152.07447
 22  7  3 12  8 55.0000000  0  7G01G03G04G07G09G16G26               
  23322441.102 3 122560039.729 3  95501537.10046  23322454.63746
  20633819.531 7 108431449.129 7  84492084.14748  20633829.91048
  21047997.523 6 110607974.396 6  86188069.41447  21048006.69147
  21993817.523 6 115578292.728 6  90061039.93247  21993826.24647
  21446235.047 6 112700671.829 6  87818746.72348  21446244.84048
  23280838.656 5 122341704.875 5  95331167.26246  23280846.19146
  23699194.789 4 124539996.909 4  97044286.45647  23699206.91447
 22  7  3 12  9  0.0000000  0  7G01G03G04G07G09G16G26               
  23326760.898 2 122582741.542 2  95519226.80346  23326774.22346
  20635762.453 6 108441658.166 6  84500039.23748  20635772.39148
  21049583.734 6 110616307.547 6  86194562.77247  21049592.60247
  21991795.594 6 115567665.204 6  90052758.74347  21991803.95347
  21446355.094 6 112701304.535 6  87819239.73348  21446365.90248
  23281220.750 4 122343716.781 4  95332734.99046  23281229.13346
  23701253.102 4 124550812.532 4  97052714.20648  23701265.14548
 22  7  3 12  9  5.0000000  0  7G01G03G04G07G09G16G26               
  23331082.984 3 122605448.899 3  95536920.81446  23331094.93046
  20637708.414 6 108451884.035 6  84508007.43948  20637718.57448
  21051170.898 6 110624648.029 6  86201061.85347  21051179.61347
  21989776.000 6 115557050.968 6  90044487.91847  21989783.71147
  21446476.984 6 112701944.386 6  87819738.31648  21446487.32048
  23281606.977 4 122345744.889 4  95334315.31146  23281615.02346
  23703314.453 4 124561645.261 4  97061155.29348  23703326.22348
 22  7  3 12  9 10.0000000  0  7G01G03G04G07G09G16G26               
  23335404.688 3 122628161.617 3  95554619.03646  23335416.87946
  20639657.656 7 108462126.631 7  84515988.68148  20639667.80148
  21052759.469 6 110632995.664 6  86207566.49247  21052767.91847
  21987758.211 6 115546449.956 6  90036227.39247  21987766.75847
  21446600.234 6 112702591.239 6  87820242.34548  21446610.20348
  23281996.109 4 122347789.100 4  95335908.22946  23282003.96946
  23705379.898 4 124572495.015 4  97069609.64248  23705391.16848
 22  7  3 12  9 15.0000000  0  7G01G03G04G07G09G16G26               
  23339727.117 3 122650879.584 3  95572321.32946  23339740.27046
  20641609.234 7 108472385.796 7  84523982.82648  20641619.99648
  21054348.820 6 110641350.384 6  86214076.67447  21054358.16447
  21985743.875 6 115535862.021 6  90027977.06347  21985752.10547
  21446724.766 6 112703245.002 6  87820751.77548  21446734.76248
  23282388.070 4 122349849.273 4  95337513.56146  23282395.52346
  23707447.977 4 124583361.688 4  97078077.17448  23707459.11348
 22  7  3 12  9 20.0000000  0  7G01G03G04G07G09G16G26               
  23344051.984 3 122673603.043 3  95590027.88546  23344064.50446
  20643564.875 7 108482661.800 7  84531990.10048  20643575.52348
  21055940.555 6 110649712.369 6  86220592.49647  21055949.34047
  21983731.250 6 115525287.361 6  90019737.06347  21983740.02347
  21446850.602 6 112703905.854 6  87821266.72048  21446860.42648
  23282783.461 4 122351925.642 4  95339131.52546  23282790.68846
  23709518.664 4 124594245.401 4  97086557.99148  23709530.20348
 22  7  3 12  9 25.0000000  0  7G01G03G04G07G09G16G26               
  23348376.531 4 122696331.652 4  95607738.47146  23348389.28946
  20645523.875 7 108492954.358 7  84540010.27148  20645534.10548
  21057532.852 6 110658081.365 6  86227113.79447  21057541.65247
  21981721.250 6 115514725.726 6  90011507.22647  21981729.83647
  21446977.789 6 112704573.587 6  87821787.03648  21446987.41448
  23283181.078 5 122354017.998 5  95340761.92446  23283189.19146
  23711592.711 4 124605145.986 4  97095051.95848  23711604.34448
 22  7  3 12  9 30.0000000  0  7G01G03G04G07G09G16G26               
  23352702.820 4 122719065.275 4  95625452.96546  23352715.59846
  20647485.734 6 108503263.323 6  84548043.22648  20647495.89848
  21059126.859 6 110666457.259 6  86233640.46447  21059135.89547
  21979713.945 6 115504177.045 6  90003287.48247  21979722.72747
  21447105.797 6 112705247.979 6  87822312.53048  21447115.69548
  23283582.344 5 122356126.143 5  95342404.63946  23283590.13746
  23713670.172 5 124616063.254 5  97103558.92748  23713682.08648
 22  7  3 12  9 35.0000000  0  7G01G03G04G07G09G16G26               
  23357029.836 4 122741804.073 4  95643171.51646  23357042.49646
  20649450.227 7 108513588.866 7  84556089.10148  20649460.88748
  21060721.563 6 110674840.136 6  86240172.58147  21060730.89147
  21977708.703 6 115493641.421 6  89995077.90347  21977717.69547
  21447235.398 6 112705929.246 6  87822843.38848  21447245.72748
  23283986.703 5 122358250.250 5  95344059.80446  23283994.64146
  23715750.844 4 124626997.276 4  97112078.94048  23715763.16848
 22  7  3 12  9 40.0000000  0  7G01G03G04G07G09G16G26               
  23361357.750 4 122764547.991 4  95660894.01146  23361370.77746
  20651418.633 6 108523930.941 6  84564147.85748  20651428.53948
  21062318.320 6 110683230.000 6  86246710.13747  21062327.52747
  21975706.945 6 115483118.877 6  89986878.52247  21975715.52347
  21447366.547 6 112706617.333 6  87823379.56048  21447376.67248
  23284393.602 5 122360390.294 5  95345727.37746  23284402.00846
  23717834.219 4 124637948.172 4  97120612.09847  23717847.05547
 22  7  3 12  9 45.0000000  0  7G01G03G04G07G09G16G26               
  23365687.266 4 122787296.896 4  95678620.41546  23365699.84446
  20653389.430 6 108534289.438 6  84572219.39248  20653399.78148
  21063916.016 6 110691626.749 6  86253253.05647  21063924.95747
  21973706.414 6 115472609.255 6  89978689.21547  21973715.17647
  21447499.461 6 112707312.133 6  87823920.96848  21447508.83648
  23284804.055 5 122362546.220 5  95347407.32646  23284811.77046
  23719920.914 3 124648915.730 3  97129158.24947  23719934.27347
 22  7  3 12  9 50.0000000  0  7G01G03G04G07G09G16G26               
  23370017.367 4 122810050.701 4  95696350.62946  23370029.40646
  20655363.836 7 108544664.333 7  84580303.72048  20655374.62148
  21065515.008 6 110700030.315 6  86259801.28747  21065524.33647
  21971709.156 6 115462112.545 6  89970509.94547  21971717.39547
  21447632.172 6 112708013.583 6  87824467.56348  21447641.92648
  23285217.453 5 122364717.906 5  95349099.54346  23285225.31646
  23722012.047 3 124659899.988 3  97137717.40147  23722024.27047
 22  7  3 12  9 55.0000000  0  7G01G03G04G07G09G16G26               
  23374347.578 5 122832809.367 5  95714084.62146  23374360.60946
  20657341.125 6 108555055.537 6  84588400.77248  20657351.35948
  21067115.719 6 110708440.676 6  86266354.81747  21067125.37947
  21969714.586 6 115451628.709 6  89962340.73247  21969722.29747
  21447766.930 6 112708721.639 6  87825019.28348  21447776.91048
  23285634.203 5 122366905.376 5  95350804.06646  23285641.75046
  23724105.008 4 124670900.739 4  97146289.41347  23724117.69147
 22  7  3 12 10  0.0000000  0  7G01G03G04G07G09G16G26               
  23378679.148 5 122855573.268 5  95731822.70846  23378692.31346
  20659321.516 6 108565463.445 6  84596510.82648  20659332.14848
  21068717.492 6 110716858.198 6  86272913.92847  21068727.07047
  21967722.266 6 115441158.087 6  89954181.79147  21967730.23847
  21447902.984 6 112709436.686 6  87825576.46348  21447912.71148
  23286052.516 5 122369108.985 5  95352521.18446  23286061.09846
  23726201.742 4 124681918.458 4  97154874.63947  23726214.01647
 22  7  3 12 10  5.0000000  0  7G01G03G04G07G09G16G26               
  23383012.156 4 122878342.372 4  95749564.84346  23383024.96946
  20661305.680 6 108575888.036 6  84604633.87448  20661315.86748
  21070320.352 6 110725282.781 6  86279478.53447  21070329.64147
  21965732.031 6 115430700.697 6  89946033.18447  21965740.26247
  21448040.711 6 112710158.645 6  87826139.02648  21448050.23848
  23286475.594 5 122371328.699 5  95354250.82846  23286483.74246
  23728302.047 3 124692953.091 3  97163473.05547  23728314.18047
 22  7  3 12 10 10.0000000  0  7G01G03G04G07G09G16G26               
  23387346.328 5 122901116.304 5  95767310.74546  23387359.02746
  20663292.617 6 108586329.018 6  84612769.69948  20663303.03948
  21071924.969 6 110733714.205 6  86286048.46347  21071934.38747
  21963744.148 6 115420256.266 6  89937894.68047  21963752.70747
  21448179.109 6 112710887.305 6  87826706.81548  21448189.32448
  23286900.680 5 122373564.278 5  95355992.85846  23286909.34046
  23730404.484 4 124704004.359 4  97172084.42547  23730416.91047
 22  7  3 12 10 15.0000000  0  7G01G03G04G07G09G16G26               
  23391680.945 5 122923895.171 5  95785060.48646  23391693.44146
  20665282.203 6 108596786.442 6  84620918.34848  20665292.58248
  21073530.727 6 110742152.507 6  86292623.76347  21073540.10547
  21961759.336 6 115409824.836 6  89929766.28347  21961767.82847
  21448318.641 6 112711622.672 6  87827279.82348  21448329.10948
  23287329.438 5 122375815.775 5  95357747.26246  23287337.31646
  23732511.016 4 124715072.280 4  97180708.77248  23732523.04348
 22  7  3 12 10 20.0000000  0  7G01G03G04G07G09G16G26               
  23396016.219 5 122946678.823 5  95802813.95547  23396028.93047
  20667275.672 6 108607260.207 6  84629079.72248  20667286.04348
  21075138.367 6 110750597.572 6  86299204.33847  21075147.02347
  21959776.727 6 115399406.371 6  89921648.00247  21959785.41447
  21448460.172 6 112712364.627 6  87827857.97048  21448470.12948
  23287760.516 5 122378083.072 5  95359513.99846  23287768.56646
  23734621.219 4 124726156.813 4  97189346.05648  23734632.48848
 22  7  3 12 10 25.0000000  0  7G01G03G04G07G09G16G26               
  23400352.359 4 122969466.780 4  95820570.77947  23400365.82847
  20669271.352 6 108617749.826 6  84637253.44048  20669281.73848
  21076746.039 6 110759048.941 6  86305789.80847  21076755.02347
  21957796.383 6 115389000.313 6  89913539.40047  21957805.17247
  21448602.734 6 112713112.712 6  87828440.88648  21448612.54348
  23288194.719 5 122380365.673 5  95361292.63947  23288203.38747
  23736732.398 4 124737257.390 4  97197995.85448  23736744.90648
 22  7  3 12 10 30.0000000  0  7G01G03G04G07G09G16G26               
  23404690.133 4 122992259.443 4  95838331.26546  23404703.35246
  20671270.953 6 108628255.776 6  84645439.90048  20671280.98448
  21078355.852 6 110767507.068 6  86312380.56147  21078364.75047
  21955819.055 6 115378607.175 6  89905440.86547  21955827.61347
  21448746.063 6 112713867.383 6  87829028.93548  21448755.86748
  23288632.367 5 122382664.124 5  95363083.62047  23288640.30947
  23738848.344 4 124748374.521 4  97206658.56648  23738860.77048
 22  7  3 12 10 35.0000000  0  7G01G03G04G07G09G16G26               
  23409028.047 4 123015056.599 4  95856095.29446  23409041.31646
  20673273.117 6 108638777.746 6  84653638.82448  20673282.78548
  21079966.734 6 110775971.617 6  86318976.30547  21079975.73447
  21953843.469 6 115368226.667 6  89897352.16147  21953852.30947
  21448890.617 6 112714628.338 6  87829621.88848  21448900.50848
  23289072.609 5 122384977.996 5  95364886.64847  23289080.62947
  23740966.898 4 124759507.837 4  97215333.87348  23740979.41848
 22  7  3 12 10 40.0000000  0  7G01G03G04G07G09G16G26               
  23413366.852 4 123037858.157 4  95873862.71647  23413380.44147
  20675278.102 6 108649315.786 6  84661850.28848  20675288.28948
  21081578.609 6 110784442.649 6  86325577.10847  21081587.46147
  21951870.453 6 115357858.846 6  89889273.34947  21951879.46547
  21449036.508 6 112715395.623 6  87830219.76448  21449046.21548
  23289516.203 5 122387307.456 5  95366701.80246  23289524.07046
  23743088.844 4 124770657.469 4  97224021.90148  23743101.00848
 22  7  3 12 10 45.0000000  0  7G01G03G04G07G09G16G26               
  23417707.133 4 123060664.189 4  95891633.64746  23417720.35546
  20677287.109 6 108659869.920 6  84670074.28448  20677296.07848
  21083192.461 6 110792920.222 6  86332183.00747  21083200.30947
  21949899.820 6 115347503.720 6  89881204.42247  21949908.70347
  21449183.867 6 112716169.229 6  87830822.56748  21449193.65248
  23289961.867 5 122389652.458 5  95368529.07147  23289970.29747
  23745213.805 4 124781823.391 4  97232722.61048  23745225.81648
 22  7  3 12 10 50.0000000  0  7G01G03G04G07G09G16G26               
  23422048.000 3 123083474.631 3  95909407.98146  23422061.27346
  20679298.258 6 108670440.079 6  84678310.76748  20679307.96148
  21084806.852 6 110801404.210 6  86338793.89947  21084815.07447
  21947932.250 6 115337161.243 6  89873145.35247  21947940.39147
  21449332.383 6 112716949.120 6  87831430.27748  21449342.00848
  23290410.758 5 122392012.895 5  95370368.37446  23290419.57846
  23747341.133 4 124793005.525 4  97241435.96348  23747353.30548
 22  7  3 12 10 55.0000000  0  7G01G03G04G07G09G16G26               
  23426390.156 3 123106289.335 3  95927185.64446  23426402.99246
  20681312.797 6 108681026.146 6  84686559.64748  20681322.18848
  21086421.734 6 110809894.545 6  86345409.75247  21086430.74647
  21945966.203 6 115326831.313 6  89865096.05747  21945974.63347
  21449481.617 6 112717735.232 6  87832042.82548  21449491.44948
  23290863.758 5 122394388.831 5  95372219.76146  23290871.51246
  23749472.688 3 124804203.831 3  97250161.91948  23749484.27348
 22  7  3 12 11  0.0000000  0  7G01G03G04G07G09G16G26               
  23430732.063 3 123129108.410 3  95944966.71646  23430745.01646
  20683329.922 6 108691628.275 6  84694821.03748  20683340.23448
  21088038.797 6 110818391.289 6  86352030.59047  21088047.68047
  21944003.039 6 115316514.022 6  89857056.61848  21944011.70348
  21449632.742 6 112718527.561 6  87832660.22248  21449642.73848
  23291318.836 5 122396780.308 5  95374083.25946  23291326.55946
  23751606.672 3 124815418.271 3  97258900.44748  23751618.07448
 22  7  3 12 11  5.0000000  0  7G01G03G04G07G09G16G26               
  23435075.227 3 123151931.813 3  95962751.17446  23435088.09046
  20685350.406 6 108702246.432 6  84703094.91548  20685360.39548
  21089656.680 6 110826894.491 6  86358656.45747  21089665.71547
  21942041.711 6 115306209.437 6  89849027.05747  21942050.65247
  21449784.648 6 112719326.206 6  87833282.53648  21449794.60948
  23291776.672 5 122399187.290 5  95375958.83746  23291784.83646
  23753743.172 3 124826648.999 3  97267651.66847  23753755.67247
 22  7  3 12 11 10.0000000  0  7G01G03G04G07G09G16G26               
  23439418.656 3 123174759.914 3  95980539.27146  23439432.07046
  20687374.523 6 108712880.979 6  84711381.56948  20687384.19148
  21091276.766 6 110835404.526 6  86365287.65147  21091285.10547
  21940083.172 6 115295917.916 6  89841007.69247  21940092.13747
  21449937.602 6 112720131.513 6  87833910.03748  21449948.16848
  23292237.586 5 122401610.221 5  95377846.84047  23292245.37147
  23755883.617 4 124837896.259 4  97276415.76348  23755895.66048
 22  7  3 12 11 15.0000000  0  7G01G03G04G07G09G16G26               
  23443764.070 3 123197592.345 3  95998330.77146  23443777.33246
  20689400.719 6 108723531.561 6  84719680.71948  20689411.07848
  21092897.453 6 110843920.969 6  86371923.83047  21092905.49647
  21938127.758 6 115285639.036 6  89832998.18847  21938136.17247
  21450092.141 6 112720943.055 6  87834542.40248  21450102.35248
  23292701.500 5 122404048.669 5  95379746.93246  23292709.84846
  23758026.789 4 124849159.728 4  97285192.49447  23758038.69947
 22  7  3 12 11 20.0000000  0  7G01G03G04G07G09G16G26               
  23448109.445 3 123220429.407 3  96016125.85146  23448122.67646
  20691430.836 6 108734198.548 6  84727992.64648  20691440.85948
  21094519.094 6 110852444.229 6  86378565.33647  21094527.21947
  21936174.398 6 115275373.198 6  89824998.83647  21936182.18447
  21450248.086 6 112721761.242 6  87835179.93948  21450257.79748
  23293168.211 5 122406503.049 5  95381659.43846  23293177.02346
  23760172.992 3 124860439.781 3  97293982.15147  23760185.22747
 22  7  3 12 11 25.0000000  0  7G01G03G04G07G09G16G26               
  23452456.805 3 123243270.714 3  96033924.26046  23452469.34846
  20693464.125 6 108744881.457 6  84736316.97948  20693473.72748
  21096141.945 6 110860973.814 6  86385211.76047  21096150.86347
  21934222.836 6 115265119.989 6  89817009.31747  21934230.89547
  21450404.953 6 112722585.630 6  87835822.31848  21450414.66048
  23293639.875 5 122408972.903 5  95383584.00546  23293647.07046
  23762322.844 3 124871736.000 3  97302784.38348  23762334.62148
 22  7  3 12 11 30.0000000  0  7G01G03G04G07G09G16G26               
  23456803.609 3 123266116.048 3  96051725.79046  23456816.82846
  20695499.922 6 108755580.221 6  84744653.67248  20695509.75848
  21097766.211 6 110869509.605 6  86391863.02447  21097774.91047
  21932274.617 6 115254879.271 6  89809029.53547  21932282.54347
  21450562.617 6 112723416.059 6  87836469.39848  21450572.75448
  23294110.992 4 122411458.104 4  95385520.53346  23294119.54746
  23764475.938 3 124883048.139 3  97311599.02947  23764487.35547
 22  7  3 12 11 35.0000000  0  7G01G03G04G07G09G16G26               
  23461152.320 3 123288965.597 3  96069530.59346  23461165.26646
  20697538.813 6 108766294.922 6  84753002.77748  20697549.11748
  21099392.422 6 110878051.819 6  86398519.29747  21099400.54347
  21930327.477 6 115244651.238 6  89801059.64247  21930336.18047
  21450722.109 6 112724252.725 6  87837121.34448  21450732.17648
  23294587.750 4 122413958.804 4  95387469.11346  23294595.61346
  23766631.547 4 124894376.462 4  97320426.29147  23766642.94147
 22  7  3 12 11 40.0000000  0  7G01G03G04G07G09G16G26               
  23465500.477 3 123311819.197 3  96087338.56846  23465514.55946
  20699580.766 6 108777025.484 6  84761364.23648  20699590.79748
  21101018.688 6 110886600.226 6  86405180.39147  21101027.17247
  21928384.188 6 115234435.712 6  89793099.50847  21928392.14547
  21450882.313 6 112725095.426 6  87837777.98448  21450892.51648
  23295067.070 4 122416474.941 4  95389429.75346  23295074.18046
  23768790.570 4 124905720.721 4  97329265.98247  23768801.67647
 22  7  3 12 11 45.0000000  0  7G01G03G04G07G09G16G26               
  23469850.820 3 123334676.772 3  96105149.65946  23469864.37146
  20701625.531 6 108787771.850 6  84769738.02548  20701636.08648
  21102646.461 6 110895154.837 6  86411846.32747  21102655.23847
  21926442.711 6 115224232.631 6  89785149.05347  21926450.69947
  21451044.055 6 112725944.199 6  87838439.36248  21451054.34048
  23295547.766 4 122419006.421 4  95391402.34046  23295556.24646
  23770951.398 4 124917080.942 4  97338118.11347  23770963.27047
 22  7  3 12 11 50.0000000  0  7G01G03G04G07G09G16G26               
  23474201.359 4 123357538.166 4  96122963.71046  23474213.99246
  20703673.492 6 108798533.892 6  84778124.01948  20703684.01648
  21104275.531 6 110903715.514 6  86418516.97347  21104284.24247
  21924503.078 6 115214041.974 6  89777208.28947  21924511.70747
  21451206.430 6 112726798.836 6  87839105.30848  21451216.92648
  23296032.570 4 122421553.091 4  95393386.75346  23296040.79746
  23773116.430 3 124928456.979 3  97346982.55347  23773128.43847
 22  7  3 12 11 55.0000000  0  7G01G03G04G07G09G16G26               
  23478551.188 4 123380403.297 4  96140780.66846  23478565.29346
  20705724.586 7 108809311.490 7  84786522.14248  20705734.77748
  21105905.492 6 110912282.136 6  86425192.26747  21105914.45747
  21922566.414 6 115203863.598 6  89769277.08647  21922574.63747
  21451370.711 6 112727659.305 6  87839775.80448  21451381.07448
  23296519.828 4 122424114.924 4  95395382.99446  23296528.07446
  23775284.891 3 124939848.761 3  97355859.25647  23775296.00847
 22  7  3 12 12  0.0000000  0  7G01G03G04G07G09G16G26               
  23482903.063 3 123403272.174 3  96158600.56746  23482916.97346
  20707778.164 6 108820104.712 6  84794932.43948  20707789.07848
  21107537.672 6 110920854.749 6  86431872.21847  21107546.12547
  21920632.648 6 115193697.618 6  89761355.56247  21920640.55547
  21451535.664 6 112728525.610 6  87840450.83248  21451545.70348
  23297010.125 3 122426691.914 3  95397391.05546  23297018.46146
  23777455.484 3 124951256.319 3  97364748.24947  23777466.54747
 22  7  3 12 12  5.0000000  0  7G01G03G04G07G09G16G26               
  23487257.430 3 123426144.979 3  96176423.49446  23487269.28946
  20709835.188 6 108830913.633 6  84803354.97048  20709845.49248
  21109169.906 6 110929433.485 6  86438556.95147  21109178.64147
  21918699.625 6 115183544.022 6  89753443.66347  21918708.07847
  21451701.328 6 112729397.838 6  87841130.49548  21451711.31348
  23297503.828 3 122429284.122 3  95399410.95046  23297512.08646
  23779628.367 3 124962679.634 3  97373649.53147  23779640.45747
 22  7  3 12 12 10.0000000  0  7G01G03G04G07G09G16G26               
  23491610.086 3 123449021.282 3  96194249.16446  23491622.75846
  20711895.078 6 108841738.006 6  84811789.54948  20711905.59448
  21110803.266 6 110938018.020 6  86445246.20147  21110812.06347
  21916769.672 6 115173402.631 6  89745541.30247  21916778.05947
  21451868.063 6 112730275.735 6  87841814.56848  21451878.71148
  23298001.078 4 122431891.455 4  95401442.61946  23298007.84446
  23781806.992 3 124974118.560 3  97382562.99947  23781817.39547
 22  7  3 12 12 15.0000000  0  7G01G03G04G07G09G16G26               
  23495963.555 4 123471901.321 4  96212077.72746  23495976.91446
  20713957.789 7 108852578.018 7  84820236.30948  20713968.46548
  21112437.141 6 110946608.595 6  86451940.15047  21112447.01647
  21914842.070 6 115163273.601 6  89737648.55247  21914850.30947
  21452036.375 6 112731159.519 6  87842503.22948  21452046.34848
  23298499.375 3 122434513.950 3  95403486.12346  23298507.21546
  23783986.016 3 124985573.288 3  97391488.75347  23783997.26647
 22  7  3 12 12 20.0000000  0  7G01G03G04G07G09G16G26               
  23500318.352 4 123494785.294 4  96229909.38846  23500331.57046
  20716024.063 6 108863433.848 6  84828695.39948  20716034.46948
  21114073.672 6 110955205.369 6  86458638.93747  21114082.85547
  21912916.531 6 115153157.168 6  89729765.61347  21912925.27747
  21452205.414 6 112732049.330 6  87843196.57948  21452216.02748
  23299001.242 4 122437151.854 4  95405541.63446  23299009.09046
  23786168.984 3 124997043.932 3  97400426.92347  23786179.73047
 22  7  3 12 12 25.0000000  0  7G01G03G04G07G09G16G26               
  23504673.461 4 123517672.948 4  96247743.87646  23504686.64846
  20718092.609 7 108874305.256 7  84837166.62048  20718103.21548
  21115710.586 6 110963808.082 6  86465342.34347  21115719.98047
  21910994.070 6 115143053.073 6  89721892.30047  21911002.78147
  21452376.195 6 112732944.951 6  87843894.45748  21452386.12548
  23299505.594 5 122439804.932 5  95407608.97546  23299513.77746
  23788354.305 3 125008530.269 3  97409377.30147  23788365.79347
 22  7  3 12 12 30.0000000  0  7G01G03G04G07G09G16G26               
  23509029.852 4 123540563.768 4  96265580.85746  23509042.86746
  20720164.250 7 108885191.789 7  84845649.62048  20720174.63348
  21117348.859 6 110972416.315 6  86472050.06247  21117357.98047
  21909073.914 6 115132960.933 6  89714028.28847  21909082.32447
  21452547.703 6 112733845.923 6  87844596.51648  21452557.58248
  23300012.508 4 122442472.728 4  95409687.77946  23300021.33646
  23790543.406 3 125020031.816 3  97418339.55947  23790554.82447
 22  7  3 12 12 35.0000000  0  7G01G03G04G07G09G16G26               
  23513386.523 4 123563458.135 4  96283420.61346  23513399.85246
  20722238.672 6 108896093.879 6  84854144.76548  20722249.58248
  21118988.273 6 110981030.466 6  86478762.38547  21118997.34047
  21907155.742 6 115122881.064 6  89706173.85347  21907164.00047
  21452720.422 6 112734752.602 6  87845303.01448  21452730.06348
  23300523.820 4 122445155.666 4  95411778.36746  23300531.96146
  23792734.078 3 125031549.033 3  97427314.00947  23792745.97747
 22  7  3 12 12 40.0000000  0  7G01G03G04G07G09G16G26               
  23517744.180 4 123586355.891 4  96301263.00746  23517756.88746
  20724316.648 6 108907011.325 6  84862651.85948  20724326.47348
  21120628.398 6 110989650.314 6  86485479.14947  21120637.73847
  21905240.164 6 115112813.347 6  89698328.89947  21905248.08247
  21452894.023 6 112735664.915 6  87846013.90948  21452903.85248
  23301037.320 5 122447853.635 5  95413880.66746  23301045.32046
  23794928.922 2 125043081.785 2  97436300.55747  23794941.11347
 22  7  3 12 12 45.0000000  0  7G01G03G04G07G09G16G26               
  23522101.563 5 123609256.885 5  96319107.90746  23522114.76646
  20726396.508 7 108917944.029 7  84871170.83848  20726406.98448
  21122269.430 6 110998275.804 6  86492200.31047  21122279.13747
  21903326.258 6 115102757.665 6  89690493.30947  21903334.42247
  21453067.938 6 112736582.658 6  87846729.02148  21453078.60948
  23301553.289 5 122450566.431 5  95415994.52646  23301561.82046
  23797125.500 3 125054629.813 3  97445299.01647  23797138.36347
 22  7  3 12 12 50.0000000  0  7G01G03G04G07G09G16G26               
  23526459.977 5 123632161.768 5  96336955.85346  23526473.47746
  20728480.547 6 108928892.596 6  84879702.18548  20728490.54748
  21123912.703 6 111006907.506 6  86498926.30547  21123921.43447
  21901415.328 6 115092714.630 6  89682667.57847  21901424.02747
  21453244.203 6 112737506.481 6  87847448.88848  21453254.29348
  23302072.172 5 122453294.721 5  95418120.47146  23302080.76646
  23799326.133 3 125066193.789 3  97454309.90447  23799339.10547
 22  7  3 12 12 55.0000000  0  7G01G03G04G07G09G16G26               
  23530819.008 5 123655070.003 5  96354806.39346  23530832.60946
  20730566.414 6 108939856.556 6  84888245.52048  20730576.98448
  21125556.008 6 111015544.983 6  86505656.81447  21125564.68447
  21899505.922 6 115082683.813 6  89674851.36147  21899515.43847
  21453421.063 6 112738435.898 6  87848173.11048  21453431.28548
  23302594.266 4 122456037.996 4  95420258.07046  23302602.60946
  23801530.727 4 125077773.236 4  97463332.86547  23801542.85947
 22  7  3 12 13  0.0000000  0  7G01G03G04G07G09G16G26               
  23535179.148 5 123677981.425 5  96372659.41146  23535192.60246
  20732655.680 6 108950835.699 6  84896800.68648  20732666.18448
  21127200.766 6 111024187.990 6  86512391.62547  21127209.86347
  21897600.023 6 115072664.983 6  89667044.48547  21897608.83247
  21453598.914 6 112739370.720 6  87848901.53748  21453608.69548
  23303119.617 4 122458796.077 4  95422407.23046  23303127.69946
  23803736.430 4 125089367.988 4  97472367.72147  23803749.03147
 22  7  3 12 13  5.0000000  0  7G01G03G04G07G09G16G26               
  23539539.555 5 123700895.903 5  96390514.81047  23539553.93047
  20734747.781 6 108961829.945 6  84905367.61548  20734758.35548
  21128845.992 6 111032836.464 6  86519130.68847  21128855.50447
  21895695.578 6 115062658.066 6  89659246.89447  21895704.93047
  21453777.750 6 112740310.876 6  87849634.11548  21453787.89848
  23303646.914 4 122461568.887 4  95424567.83946  23303655.17646
  23805945.883 3 125100977.867 3  97481414.38747  23805958.51647
 22  7  3 12 13 10.0000000  0  7G01G03G04G07G09G16G26               
  23543901.289 5 123723813.557 5  96408372.74546  23543914.51246
  20736842.719 6 108972839.473 6  84913946.46048  20736853.26248
  21130493.242 6 111041490.578 6  86525874.16347  21130502.19947
  21893793.961 6 115052663.287 6  89651458.77147  21893802.96547
  21453957.883 6 112741256.505 6  87850370.96648  21453968.22748
  23304177.766 4 122464356.641 4  95426740.11546  23304185.53946
  23808158.117 3 125112603.162 3  97490473.05547  23808170.75847
 22  7  3 12 13 15.0000000  0  7G01G03G04G07G09G16G26               
  23548262.813 5 123746734.782 5  96426233.42646  23548276.26646
  20738941.578 6 108983864.646 6  84922537.50048  20738951.90248
  21132141.148 6 111050150.697 6  86532622.30147  21132150.51647
  21891894.031 6 115042680.972 6  89643680.33447  21891902.96147
  21454138.969 6 112742207.969 6  87851112.35648  21454149.34048
  23304711.109 5 122467159.659 5  95428924.30146  23304718.94946
  23810373.602 4 125124244.144 4  97499543.95747  23810385.95747
 22  7  3 12 13 20.0000000  0  7G01G03G04G07G09G16G26               
  23552624.609 4 123769659.707 4  96444096.97946  23552638.62546
  20741042.047 6 108994905.622 6  84931140.84948  20741052.72348
  21133790.695 6 111058817.001 6  86539375.26047  21133799.47747
  21889996.789 6 115032711.301 6  89635911.76347  21890005.64147
  21454321.102 6 112743165.454 6  87851858.44048  21454331.27048
  23305247.898 4 122469978.163 4  95431120.53346  23305255.55946
  23812591.594 4 125135901.014 4  97508627.22747  23812604.09847
 22  7  3 12 13 25.0000000  0  7G01G03G04G07G09G16G26               
  23556987.836 4 123792588.146 4  96461963.27446  23557002.06646
  20743145.625 6 109005962.147 6  84939756.31348  20743156.43048
  21135440.539 6 111067489.184 6  86546132.80247  21135449.66847
  21888102.039 6 115022754.066 6  89628152.88547  21888110.43047
  21454504.086 6 112744128.689 6  87852609.02348  21454514.52348
  23305787.016 4 122472811.830 4  95433328.57546  23305794.58246
  23814812.469 4 125147573.459 4  97517722.65247  23814825.80147
 22  7  3 12 13 30.0000000  0  7G01G03G04G07G09G16G26               
  23561351.422 5 123815519.358 5  96479831.72347  23561365.32447
  20745252.930 6 109017033.671 6  84948383.46648  20745263.32448
  21137091.914 6 111076166.678 6  86552894.48547  21137101.23047
  21886209.719 6 115012808.665 6  89620403.21647  21886217.98447
  21454688.844 6 112745097.082 6  87853363.60948  21454698.96148
  23306328.883 5 122475660.193 5  95435548.08846  23306336.52046
  23817037.430 3 125159260.978 3  97526829.81647  23817050.05147
 22  7  3 12 13 35.0000000  0  7G01G03G04G07G09G16G26               
  23565716.453 5 123838453.682 5  96497702.60446  23565729.74246
  20747362.469 6 109028120.408 6  84957022.48048  20747373.14848
  21138744.398 6 111084849.783 6  86559660.55047  21138753.80947
  21884318.789 6 115002875.338 6  89612662.96547  21884327.19947
  21454874.086 6 112746070.950 6  87854122.46348  21454884.32848
  23306873.109 4 122478523.427 4  95437779.17046  23306881.66046
  23819264.039 3 125170963.739 3  97535948.84247  23819276.92647
 22  7  3 12 13 40.0000000  0  7G01G03G04G07G09G16G26               
  23570081.203 5 123861390.849 5  96515575.71246  23570094.52346
  20749474.828 6 109039222.069 6  84965673.11148  20749485.88348
  21140397.438 6 111093538.155 6  86566430.70547  21140407.10547
  21882431.000 6 114992953.782 6  89604931.89147  21882439.46947
  21455060.125 6 112747049.878 6  87854885.26048  21455070.19148
  23307420.711 4 122481401.298 4  95440021.65646  23307429.19546
  23821494.211 2 125182681.547 2  97545079.60247  23821507.00047
 22  7  3 12 13 45.0000000  0  7G01G03G04G07G09G16G26               
  23574446.320 5 123884331.035 5  96533451.16047  23574459.76647
  20751590.711 6 109050339.012 6  84974335.65548  20751601.27348
  21142052.070 6 111102232.146 6  86573205.24847  21142061.58647
  21880545.797 6 114983044.375 6  89597210.31147  21880553.84447
  21455247.484 6 112748034.289 6  87855652.33948  21455257.68848
  23307970.984 4 122484294.053 4  95442275.74846  23307979.87946
  23823726.656 2 125194414.589 2  97554222.23047  23823739.18047
 22  7  3 12 13 50.0000000  0  8G01G03G04G06G07G09G16G26            
  23578812.094 5 123907273.905 5  96551328.70546  23578825.23846
  20753708.836 6 109061470.803 6  84983009.77048  20753719.35248
  21143707.680 6 111110931.335 6  86579983.83047  21143716.82847
  22853439.500 1 120095595.95811  93581053.45655  22853450.23445
  21878662.023 6 114973146.691 6  89589497.81347  21878670.36747
  21455435.820 6 112749023.768 6  87856423.35948  21455445.96548
  23308524.031 4 122487201.363 4  95444541.20646  23308533.04746
  23825962.617 2 125206162.546 2  97563376.48547  23825974.45747
 22  7  3 12 13 55.0000000  0  8G01G03G04G06G07G09G16G26            
  23583178.531 5 123930219.603 5  96569208.42747  23583192.13747
  20755830.016 6 109072617.637 6  84991695.61048  20755840.71148
  21145363.516 6 111119635.921 6  86586766.62947  21145373.02047
  22853383.828 1 120095298.439 1  93580821.57045  22853394.12545
  21876780.984 6 114963260.977 6  89581794.66647  21876789.33247
  21455625.281 6 112750018.461 6  87857198.44248  21455635.11348
  23309080.719 4 122490123.401 4  95446818.12946  23309089.00046
  23828201.594 1 125217925.579 1  97572542.50247  23828212.67247
 22  7  3 12 14  0.0000000  0  8G01G03G04G06G07G09G16G26            
  23587545.844 5 123953168.004 5  96587090.28146  23587559.30146
  20757953.852 6 109083779.305 6  85000393.00148  20757964.36348
  21147021.250 6 111128345.646 6  86593553.42247  21147030.50847
  22853330.523 1 120095018.356 1  93580603.32845  22853340.96145
  21874902.344 6 114953386.932 6  89574100.60647  21874910.30547
  21455815.328 6 112751018.199 6  87857977.44348  21455825.59448
  23309639.141 4 122493060.021 4  95449106.39646  23309647.63346
  23830442.656 2 125229703.457 2  97581720.08147  23830454.16447
 22  7  3 12 14  5.0000000  0  8G01G03G04G06G07G09G16G26            
  23591912.789 5 123976119.486 5  96604974.55947  23591926.51647
  20760080.875 6 109094956.350 6  85009102.37948  20760091.49248
  21148679.805 6 111137061.130 6  86600344.70547  21148688.78147
  22853279.609 2 120094756.410 2  93580399.24345  22853290.85545
  21873025.273 6 114943525.213 6  89566416.16647  21873033.79747
  21456006.266 6 112752023.500 6  87858760.79548  21456017.12148
  23310201.375 4 122496011.720 4  95451406.39446  23310209.33646
  23832686.352 2 125241496.755 2  97590909.67547  23832698.15247
 22  7  3 12 14 10.0000000  0  8G01G03G04G06G07G09G16G26            
  23596281.273 5 123999073.956 5  96622861.13147  23596294.35547
  20762210.805 6 109106148.640 6  85017823.64148  20762221.13748
  21150338.922 6 111145782.158 6  86607140.30547  21150348.28947
  22853233.914 1 120094512.447 1  93580209.07245  22853244.84445
  21871151.297 6 114933675.652 6  89558741.20347  21871159.68447
  21456198.523 6 112753034.196 6  87859548.35548  21456209.33648
  23310766.031 4 122498978.372 4  95453718.08546  23310773.98446
  23834932.891 2 125253305.342 2  97600111.15947  23834945.44947
 22  7  3 12 14 15.0000000  0  8G01G03G04G06G07G09G16G26            
  23600649.203 5 124022031.347 5  96640749.98947  23600663.39847
  20764343.938 6 109117356.032 6  85026556.65948  20764354.13748
  21152000.500 6 111154508.669 6  86613940.18047  21152008.75847
  22853190.398 1 120094286.346 1  93580032.84645  22853201.81645
  21869279.141 6 114923838.154 6  89551075.62947  21869287.59447
  21456392.266 6 112754050.252 6  87860340.09148  21456402.65248
  23311333.125 4 122501959.952 4  95456041.38446  23311341.43846
  23837183.039 2 125265129.070 2  97609324.44947  23837195.74647
 22  7  3 12 14 20.0000000  0  8G01G03G04G06G07G09G16G26            
  23605019.070 5 124044991.756 5  96658641.17747  23605032.84447
  20766478.867 6 109128578.742 6  85035301.62848  20766489.66048
  21153661.500 6 111163240.808 6  86620744.45147  21153670.30947
  22853150.570 1 120094078.181 1  93579870.64945  22853162.04345
  21867409.063 6 114914012.827 6  89543419.54047  21867417.88347
  21456586.867 6 112755071.744 6  87861136.04948  21456596.93448
  23311903.758 3 122504956.493 3  95458376.32946  23311911.77046
  23839435.695 1 125276968.078 1  97618549.64247  23839448.86747
 22  7  3 12 14 25.0000000  0  8G01G03G04G06G07G09G16G26            
  23609388.508 5 124067954.979 5  96676534.58147  23609402.37147
  20768617.813 6 109139816.532 6  85044058.34848  20768628.43048
  21155324.305 6 111171978.367 6  86627552.93947  21155333.14147
  22853116.836 1 120093887.925 1  93579722.36445  22853125.84845
  21865541.578 6 114904199.646 6  89535772.91947  21865550.77347
  21456782.211 6 112756098.578 6  87861936.17948  21456792.22748
  23312476.492 4 122507967.854 4  95460722.84546  23312484.51646
  23841688.945 1 125288822.280 1  97627786.63247  23841704.61347
 22  7  3 12 14 30.0000000  0  8G01G03G04G06G07G09G16G26            
  23613759.469 5 124090921.051 5  96694430.19347  23613772.81647
  20770758.922 7 109151069.500 7  85052826.88348  20770769.87148
  21156987.531 6 111180721.412 6  86634365.69647  21156996.47747
  22853081.430 2 120093715.484 2  93579588.02545  22853092.89145
  21863676.742 6 114894398.525 6  89528135.69447  21863685.64847
  21456978.914 6 112757130.725 6  87862740.45048  21456989.06648
  23313053.117 4 122510994.047 4  95463080.90546  23313061.50046
  23843949.789 1                                  23843962.70747
 22  7  3 12 14 35.0000000  0  8G01G03G04G06G07G09G16G26            
  23618129.461 5 124113889.587 5  96712327.71846  23618143.46146
  20772903.336 7 109162337.196 7  85061606.89948  20772914.09848
  21158652.430 6 111189469.561 6  86641182.44047  21158661.64847
  22853053.344 2 120093560.526 2  93579467.24345  22853063.64145
  21861813.984 6 114884609.138 6  89520507.59847  21861822.58647
  21457175.977 6 112758167.797 6  87863548.56248  21457186.64148
  23313631.727 4 122514034.710 4  95465450.29746  23313639.18046
  23846212.125 1 125312575.62611  97646295.72957  23846224.28147
 22  7  3 12 14 40.0000000  0  8G01G03G04G06G07G09G16G26            
  23622501.391 5 124136860.851 5  96730227.39647  23622514.74647
  20775050.383 7 109173620.025 7  85070398.71148  20775061.16848
  21160317.820 6 111198223.110 6  86648003.39347  21160327.27747
  22853027.008 2 120093423.375 2  93579360.38345  22853038.35945
  21859953.211 6 114874831.804 6  89512888.90247  21859961.58647
  21457374.461 6 112759210.145 6  87864360.77148  21457385.00448
  23314212.469 4 122517090.154 4  95467831.14146  23314220.57046
  23848476.859 2 125324474.718 2  97655567.78247  23848488.80547
 22  7  3 12 14 45.0000000  0  8G01G03G04G06G07G09G16G26            
  23626872.930 5 124159834.935 5  96748129.23347  23626886.64147
  20777200.609 7 109184917.965 7  85079202.29448  20777211.16848
  21161985.000 6 111206982.166 6  86654828.62247  21161993.66047
